,Opportunity ID,Account ID,StageName,IsClosed,IsWon,CreatedDate,Term in Months,Service,Opportunity Type,Product Group,Building ID,Market,Street Address,City,State,Postal Code,Network Proximity,On Zayo Network Status,Building Type,NumberOfEmployees,DandB Total Employees,X36 NPV List,AnnualRevenue,X36 NRR List,X36 MRC List,Longitude,Latitude,Industry,Estimated Build Cost,Net Classification,Vertical,Type,Total BRR
0,Opp-000001,Acct-000007,Closed - Lost,True,False,7/1/16,12.0,,New Service,Ethernet,Bldg-012582,Atlanta,56 Marietta St NW,Atlanta,GA,30303,66.45,On Zayo Network,,0.0,0.0,23757.066940298504,0.0,1073.7171641791042,1775.3453731343284,-84.391561,33.755431,,11993.5,On-Net,PTT,Telecommunications,1334080.0
1,Opp-000002,Acct-000986,5 - Accepted,True,True,7/1/16,60.0,,New Service,Dark Fiber - Metro,Bldg-016855,Atlanta,300 Satellite Blvd NW,Suwanee,GA,30024,374.79,On Zayo Network,,0.0,0.0,59938.9,0.0,4610.0,3163.05,-84.0608807,34.035421299999996,,21243.7,On-Net,Manufacturing - Other,Energy & Manufacturing,2910.34
2,Opp-000002,Acct-000986,5 - Accepted,True,True,7/1/16,60.0,,New Service,Dark Fiber - Metro,Bldg-109003,Atlanta,305 Satellite Blvd NW,Suwanee,GA,30024,250.74,On Zayo Network,,0.0,0.0,59938.9,0.0,4610.0,3163.05,-84.0633047,34.036374200000004,,17522.2,Restricted,Manufacturing - Other,Energy & Manufacturing,2910.34
3,Opp-000003,Acct-000011,5 - Accepted,True,True,7/1/16,36.0,,New Service,Dark Fiber - Metro,Bldg-012582,Atlanta,56 Marietta St NW,Atlanta,GA,30303,66.45,On Zayo Network,,116000.0,116000.0,23266.981627906975,198819158000.0,1126.0855813953488,1285.116976744186,-84.391561,33.755431,,11993.5,On-Net,Internet Content & Software,Media & Content,683378.0
4,Opp-000003,Acct-000011,5 - Accepted,True,True,7/1/16,36.0,,New Service,Dark Fiber - Metro,Bldg-038069,Atlanta,1100 Abernathy Rd NE,Atlanta,GA,30328,151.21,On Zayo Network,,116000.0,116000.0,23266.981627906975,198819158000.0,1126.0855813953488,1285.116976744186,-84.3530428,33.933876500000004,,14536.3,Fiber Only,Internet Content & Software,Media & Content,683378.0
5,Opp-000004,Acct-000143,1 - Working,False,False,7/1/16,-1.0,,New Service,Ethernet,Bldg-038068,Atlanta,1055 Spring St NW,Atlanta,GA,30309,185.76,On Zayo Network,,0.0,0.0,33413.167625899274,0.0,1395.266258992806,2821.6705755395683,-84.38855699999999,33.783427,,15572.8,On-Net,Consulting / Other Professional Services,Professional Services,0.0
6,Opp-000005,Acct-000143,1 - Working,False,False,7/1/16,-1.0,,New Service,Wavelengths - Long Haul,Bldg-038068,Atlanta,1055 Spring St NW,Atlanta,GA,30309,185.76,On Zayo Network,,0.0,0.0,33413.167625899274,0.0,1395.266258992806,2821.6705755395683,-84.38855699999999,33.783427,,15572.8,On-Net,Consulting / Other Professional Services,Professional Services,0.0
7,Opp-000006,Acct-000011,1 - Working,False,False,7/1/16,-1.0,,New Service,Ethernet,Bldg-012582,Atlanta,56 Marietta St NW,Atlanta,GA,30303,66.45,On Zayo Network,,116000.0,116000.0,23266.981627906975,198819158000.0,1126.0855813953488,1285.116976744186,-84.391561,33.755431,,11993.5,On-Net,Internet Content & Software,Media & Content,683378.0
8,Opp-000007,Acct-000011,3 - Committed,False,False,7/1/16,12.0,,New Service,Ethernet,Bldg-038069,Atlanta,1100 Abernathy Rd NE,Atlanta,GA,30328,151.21,On Zayo Network,,116000.0,116000.0,23266.981627906975,198819158000.0,1126.0855813953488,1285.116976744186,-84.3530428,33.933876500000004,,14536.3,Fiber Only,Internet Content & Software,Media & Content,683378.0
9,Opp-000008,Acct-000191,Closed - Lost,True,False,7/1/16,-1.0,,New Service,Ethernet,Bldg-016856,Atlanta,1033 Jefferson St NW,Atlanta,GA,30318,539.41,On Zayo Network,,0.0,0.0,61517.550588235295,0.0,1663.2156862745098,2811.42,-84.42146109999999,33.7775391,,22945.84,Fiber Only,,,0.0
10,Opp-000008,Acct-000191,Closed - Lost,True,False,7/1/16,-1.0,,New Service,Ethernet,Bldg-038242,Atlanta,5600 United Dr SE,Smyrna,GA,30082,426.83,On Zayo Network,,0.0,0.0,61517.550588235295,0.0,1663.2156862745098,2811.42,-84.522539,33.841315,,22804.9,Fiber Only,,,0.0
11,Opp-000008,Acct-000191,Closed - Lost,True,False,7/1/16,-1.0,,New Service,Ethernet,Bldg-109081,Atlanta,5909 N Peachtree Rd,Dunwoody,GA,30338,225.67,On Zayo Network,,0.0,0.0,61517.550588235295,0.0,1663.2156862745098,2811.42,-84.3503,33.916299,,16770.1,Fiber Only,,,0.0
12,Opp-000008,Acct-000191,Closed - Lost,True,False,7/1/16,-1.0,,New Service,Ethernet,Bldg-136838,Atlanta,1001 Summit Blvd NE,Atlanta,GA,30319,170.93,On Zayo Network,,0.0,0.0,61517.550588235295,0.0,1663.2156862745098,2811.42,-84.34098399999999,33.915657200000005,,15127.9,Restricted,,,0.0
13,Opp-000009,Acct-000950,Closed - Lost,True,False,7/1/16,-1.0,,New Service,IP Services,Bldg-012582,Atlanta,56 Marietta St NW,Atlanta,GA,30303,66.45,On Zayo Network,,1.0,1.0,256935.16999999998,84276.33,4610.0,9590.73,-84.391561,33.755431,,11993.5,On-Net,Consulting / Other Professional Services,Professional Services,0.0
14,Opp-000009,Acct-000950,Closed - Lost,True,False,7/1/16,-1.0,,New Service,IP Services,Bldg-015168,Denver,1850 Pearl St,Denver,CO,80203,103.07,On Zayo Network,,1.0,1.0,256935.16999999998,84276.33,4610.0,9590.73,-104.97949960000001,39.745886,,17038.15,On-Net,Consulting / Other Professional Services,Professional Services,0.0
15,Opp-000009,Acct-000950,Closed - Lost,True,False,7/1/16,-1.0,,New Service,IP Services,Bldg-065056,Dallas,2323 Bryan St,Dallas,TX,75201,64.67,On Zayo Network,,1.0,1.0,256935.16999999998,84276.33,4610.0,9590.73,-96.79411800000001,32.787255,,15880.2,Fiber Only,Consulting / Other Professional Services,Professional Services,0.0
16,Opp-000010,Acct-000427,4 - Closed,True,True,7/1/16,36.0,,New Service,Ethernet,Bldg-014866,Dallas,1950 N Stemmons Fwy,Dallas,TX,75207,239.8,On Zayo Network,,0.0,0.0,16379.028,0.0,2351.832,5066.9619999999995,-96.819612,32.800805,,26388.0,On-Net,Federal Government,Government,0.0
17,Opp-000011,Acct-000427,1 - Working,False,False,7/1/16,36.0,,New Service,Ethernet,Bldg-014866,Dallas,1950 N Stemmons Fwy,Dallas,TX,75207,239.8,On Zayo Network,,0.0,0.0,16379.028,0.0,2351.832,5066.9619999999995,-96.819612,32.800805,,26388.0,On-Net,Federal Government,Government,0.0
18,Opp-000012,Acct-000034,1 - Working,False,False,7/2/16,36.0,,New Service,Wavelengths - Long Haul,Bldg-014866,Dallas,1950 N Stemmons Fwy,Dallas,TX,75207,239.8,On Zayo Network,,0.0,0.0,22169.201952,0.0,1248.8204,1900.7950399999997,-96.819612,32.800805,,26388.0,On-Net,National Carrier/ISP,Telecommunications,1541759.0
19,Opp-000012,Acct-000034,1 - Working,False,False,7/2/16,36.0,,New Service,Wavelengths - Long Haul,Bldg-108671,Denver,9706 E Easter Ave,Englewood,CO,80112,109.6,On Zayo Network,,0.0,0.0,22169.201952,0.0,1248.8204,1900.7950399999997,-104.876543,39.587387299999996,,17332.0,Fiber Only,National Carrier/ISP,Telecommunications,1541759.0
20,Opp-000012,Acct-000034,1 - Working,False,False,7/2/16,36.0,,New Service,Wavelengths - Long Haul,Bldg-140646,Denver,106 Inverness Circle E,Englewood,CO,80112,704.51,Not on Zayo Network,,0.0,0.0,22169.201952,0.0,1248.8204,1900.7950399999997,-104.8631422,39.5770328,,33535.3,Fiber Only,National Carrier/ISP,Telecommunications,1541759.0
21,Opp-000013,Acct-000469,Closed - Lost,True,False,7/1/16,36.0,,New Service,Wavelengths - Metro,Bldg-014866,Dallas,1950 N Stemmons Fwy,Dallas,TX,75207,239.8,On Zayo Network,,0.0,48.0,30771.624,0.0,2443.3,1777.7379999999998,-96.819612,32.800805,,26388.0,On-Net,Internet Content & Software,Media & Content,162707.0
22,Opp-000013,Acct-000469,Closed - Lost,True,False,7/1/16,36.0,,New Service,Wavelengths - Metro,Bldg-361118,Dallas,2800 Summit Ave,Plano,TX,75074,202.08,On Zayo Network,,0.0,48.0,30771.624,0.0,2443.3,1777.7379999999998,-96.6764626,33.0093307,,24124.8,Fiber Only,Internet Content & Software,Media & Content,162707.0
23,Opp-000014,Acct-000469,5 - Accepted,True,True,7/1/16,36.0,,New Service,Wavelengths - Metro,Bldg-065056,Dallas,2323 Bryan St,Dallas,TX,75201,64.67,On Zayo Network,,0.0,48.0,30771.624,0.0,2443.3,1777.7379999999998,-96.79411800000001,32.787255,,15880.2,Fiber Only,Internet Content & Software,Media & Content,162707.0
24,Opp-000014,Acct-000469,5 - Accepted,True,True,7/1/16,36.0,,New Service,Wavelengths - Metro,Bldg-361118,Dallas,2800 Summit Ave,Plano,TX,75074,202.08,On Zayo Network,,0.0,48.0,30771.624,0.0,2443.3,1777.7379999999998,-96.6764626,33.0093307,,24124.8,Fiber Only,Internet Content & Software,Media & Content,162707.0
25,Opp-000015,Acct-000427,3 - Committed,False,False,7/1/16,60.0,,New Service,Ethernet,Bldg-014866,Dallas,1950 N Stemmons Fwy,Dallas,TX,75207,239.8,On Zayo Network,,0.0,0.0,16379.028,0.0,2351.832,5066.9619999999995,-96.819612,32.800805,,26388.0,On-Net,Federal Government,Government,0.0
26,Opp-000016,Acct-000435,Closed - Lost,True,False,7/2/16,36.0,,New Service,Ethernet,Bldg-012582,Atlanta,56 Marietta St NW,Atlanta,GA,30303,66.45,On Zayo Network,,1100.0,1100.0,21187.39833333333,328820055.29,1075.6666666666667,1911.8797222222222,-84.391561,33.755431,,11993.5,On-Net,Regional Carrier/ISP,Telecommunications,420878.0
27,Opp-000017,Acct-000938,Closed - Lost,True,False,7/2/16,36.0,,New Service,Wavelengths - Metro,Bldg-015500,Dallas,2300 W Plano Pkwy - Bldg C,Plano,TX,75075,657.46,On Zayo Network,,4800.0,4800.0,54082.6175,343640307.26,2766.0,4080.375,-96.73684300000001,33.005724,,28436.5,On-Net,Real Estate / Construction,Other Industry,35736.0
28,Opp-000017,Acct-000938,Closed - Lost,True,False,7/2/16,36.0,,New Service,Wavelengths - Metro,Bldg-118244,Dallas,8 Campus Cir,Roanoke,TX,76262,479.98,On Zayo Network,,4800.0,4800.0,54082.6175,343640307.26,2766.0,4080.375,-97.17446,32.98064,,40798.8,On-Net,Real Estate / Construction,Other Industry,35736.0
29,Opp-000018,Acct-000938,5 - Accepted,True,True,7/2/16,60.0,,New Service,Wavelengths - Long Haul,Bldg-359461,Dallas,3001 Hackberry Rd,Irving,TX,75063,268.84,On Zayo Network,,4800.0,4800.0,54082.6175,343640307.26,2766.0,4080.375,-96.9852418,32.926302500000006,,28130.4,Fiber Only,Real Estate / Construction,Other Industry,35736.0
30,Opp-000019,Acct-000938,5 - Accepted,True,True,7/2/16,60.0,,New Service,Wavelengths - Metro,Bldg-015500,Dallas,2300 W Plano Pkwy - Bldg C,Plano,TX,75075,657.46,On Zayo Network,,4800.0,4800.0,54082.6175,343640307.26,2766.0,4080.375,-96.73684300000001,33.005724,,28436.5,On-Net,Real Estate / Construction,Other Industry,35736.0
31,Opp-000019,Acct-000938,5 - Accepted,True,True,7/2/16,60.0,,New Service,Wavelengths - Metro,Bldg-359461,Dallas,3001 Hackberry Rd,Irving,TX,75063,268.84,On Zayo Network,,4800.0,4800.0,54082.6175,343640307.26,2766.0,4080.375,-96.9852418,32.926302500000006,,28130.4,Fiber Only,Real Estate / Construction,Other Industry,35736.0
32,Opp-000020,Acct-000056,Closed - Lost,True,False,7/5/16,12.0,,New Service,Wavelengths - Metro,Bldg-117680,Dallas,3000 Telecom Pkwy,Richardson,TX,75082,4830.93,On Zayo Network,,242000.0,213000.0,6702.486666666667,87756882000.0,2766.0,8538.214166666667,-96.651985,32.99042,,132773.25,Fiber Only,Finance - Other,Finance,539570.0
33,Opp-000020,Acct-000056,Closed - Lost,True,False,7/5/16,12.0,,New Service,Wavelengths - Metro,Bldg-117872,Dallas,4500 Amon Carter Blvd,Fort Worth,TX,76155,85.33,On Zayo Network,,242000.0,213000.0,6702.486666666667,87756882000.0,2766.0,8538.214166666667,-97.04868,32.830009999999994,,17119.8,Fiber Only,Finance - Other,Finance,539570.0
34,Opp-000021,Acct-000019,3 - Committed,False,False,7/5/16,36.0,,New Service,Ethernet,Bldg-030642,Denver,393 Inverness Pkwy,Englewood,CO,80112,96.73,On Zayo Network,,0.0,0.0,53023.202217194565,0.0,13306.329570135746,2934.3505882352943,-104.86654820000001,39.5643596,,16752.85,On-Net,National Carrier/ISP,Telecommunications,22141.48
35,Opp-000022,Acct-000019,3 - Committed,False,False,7/5/16,36.0,,New Service,Ethernet,Bldg-014866,Dallas,1950 N Stemmons Fwy,Dallas,TX,75207,239.8,On Zayo Network,,0.0,0.0,53023.202217194565,0.0,13306.329570135746,2934.3505882352943,-96.819612,32.800805,,26388.0,On-Net,National Carrier/ISP,Telecommunications,22141.48
36,Opp-000022,Acct-000019,3 - Committed,False,False,7/5/16,36.0,,New Service,Ethernet,Bldg-030642,Denver,393 Inverness Pkwy,Englewood,CO,80112,96.73,On Zayo Network,,0.0,0.0,53023.202217194565,0.0,13306.329570135746,2934.3505882352943,-104.86654820000001,39.5643596,,16752.85,On-Net,National Carrier/ISP,Telecommunications,22141.48
37,Opp-000023,Acct-001119,1 - Working,False,False,7/5/16,36.0,,New Service,Ethernet,Bldg-111386,Denver,3431 N Windsor Dr,Aurora,CO,80011,779.17,On Zayo Network,,0.0,0.0,0.0,0.0,0.0,0.0,-104.762111,39.762776,,35775.1,Fiber Only,Telecommunications Equipment Provider,Other Industry,1840.0
38,Opp-000024,Acct-000019,3 - Committed,False,False,7/5/16,36.0,,New Service,Wavelengths - Long Haul,Bldg-014866,Dallas,1950 N Stemmons Fwy,Dallas,TX,75207,239.8,On Zayo Network,,0.0,0.0,53023.202217194565,0.0,13306.329570135746,2934.3505882352943,-96.819612,32.800805,,26388.0,On-Net,National Carrier/ISP,Telecommunications,22141.48
39,Opp-000025,Acct-001120,5 - Accepted,True,True,7/6/16,36.0,,New Service,IP Services,Bldg-464044,Dallas,1430 E Southlake Blvd,Southlake,TX,76092,-1.0,Build in Progress,,0.0,0.0,0.0,0.0,0.0,0.0,-97.130087,32.941359999999996,,12000.0,Fiber Only,Retail,Other Industry,9233.4
40,Opp-000026,Acct-000944,Closed - Lost,True,False,7/6/16,36.0,,New Service,Wavelengths - Metro,Bldg-014866,Dallas,1950 N Stemmons Fwy,Dallas,TX,75207,239.8,On Zayo Network,,0.0,0.0,31342.345,0.0,2766.0,1606.585,-96.819612,32.800805,,26388.0,On-Net,Wireless,Telecommunications,0.0
41,Opp-000026,Acct-000944,Closed - Lost,True,False,7/6/16,36.0,,New Service,Wavelengths - Metro,Bldg-032157,Dallas,1500 E Plano Pkwy,Plano,TX,75074,251.92,Not on Zayo Network,,0.0,0.0,31342.345,0.0,2766.0,1606.585,-96.69174559999999,33.0064731,,27115.2,Type 2,Wireless,Telecommunications,0.0
42,Opp-000026,Acct-000944,Closed - Lost,True,False,7/6/16,36.0,,New Service,Wavelengths - Metro,Bldg-127057,Dallas,1649 W Frankford Rd,Carrollton,TX,75007,630.74,On Zayo Network,,0.0,0.0,31342.345,0.0,2766.0,1606.585,-96.930441,32.992076000000004,,27768.5,Fiber Only,Wireless,Telecommunications,0.0
43,Opp-000026,Acct-000944,Closed - Lost,True,False,7/6/16,36.0,,New Service,Wavelengths - Metro,Bldg-137677,Dallas,6431 Longhorn Dr,Irving,TX,75063,338.03,On Zayo Network,,0.0,0.0,31342.345,0.0,2766.0,1606.585,-96.9829687,32.8970767,,32281.8,Fiber Only,Wireless,Telecommunications,0.0
44,Opp-000027,Acct-000116,1 - Working,False,False,7/6/16,-1.0,,New Service,Wavelengths - Long Haul,Bldg-108671,Denver,9706 E Easter Ave,Englewood,CO,80112,109.6,On Zayo Network,,19200.0,19200.0,14420.113611111112,5141072000.0,1800.4611111111108,4149.871944444444,-104.876543,39.587387299999996,,17332.0,Fiber Only,RLEC,Telecommunications,646154.0
45,Opp-000028,Acct-000036,Closed - Lost,True,False,7/6/16,-1.0,,New Service,Wavelengths - Long Haul,Bldg-012582,Atlanta,56 Marietta St NW,Atlanta,GA,30303,66.45,On Zayo Network,,34518.0,34518.0,37695.075,9277969886.09,2766.0,2025.41,-84.391561,33.755431,,11993.5,On-Net,Wireless,Telecommunications,5105015.0
46,Opp-000029,Acct-000141,1 - Working,False,False,7/6/16,-1.0,,New Service,IP Services,Bldg-014866,Dallas,1950 N Stemmons Fwy,Dallas,TX,75207,239.8,On Zayo Network,,3686.0,3686.0,14052.2025,927052560.0,1267.75,2411.1825,-96.819612,32.800805,,26388.0,On-Net,Cloud Service Provider,IT Infrastructure,149155.0
47,Opp-000029,Acct-000141,1 - Working,False,False,7/6/16,-1.0,,New Service,IP Services,Bldg-054666,Atlanta,1201 W Peachtree St NE,Atlanta,GA,30309,159.56,On Zayo Network,,3686.0,3686.0,14052.2025,927052560.0,1267.75,2411.1825,-84.38296899999999,33.787690000000005,,14786.8,On-Net,Cloud Service Provider,IT Infrastructure,149155.0
48,Opp-000029,Acct-000141,1 - Working,False,False,7/6/16,-1.0,,New Service,IP Services,Bldg-120365,Dallas,6900 Dallas Pkwy,Plano,TX,75024,114.78,On Zayo Network,,3686.0,3686.0,14052.2025,927052560.0,1267.75,2411.1825,-96.82369,33.07242,,18886.8,Fiber Only,Cloud Service Provider,IT Infrastructure,149155.0
49,Opp-000030,Acct-000038,1 - Working,False,False,7/6/16,5.0,,New Service,Dark Fiber - Metro,Bldg-111681,Denver,6900 S Peoria St,Centennial,CO,80112,244.81,On Zayo Network,,61814.0,61814.0,13079.0365625,69139858000.0,1555.875,1186.4590625,-104.8470746,39.591309100000004,,23416.45,Fiber Only,Internet Content & Software,Media & Content,1183550.0
50,Opp-000031,Acct-000448,5 - Accepted,True,True,7/6/16,93.0,,New Service,Dark Fiber - Metro,Bldg-109234,Denver,555 17th St,Denver,CO,80202,97.89,On Zayo Network,,45.0,45.0,32857.278000000006,5453032.54,2083.72,1639.702,-104.989305,39.745216,,16805.05,Fiber Only,Regional Carrier/ISP,Telecommunications,21182.0
51,Opp-000032,Acct-001020,Closed - Lost,True,False,7/6/16,12.0,,New Service,Wavelengths - Long Haul,Bldg-038523,Atlanta,375 Riverside Pkwy,Lithia Springs,GA,30122,274.12,On Zayo Network,,29000.0,0.0,70015.57,0.0,922.0,2934.96,-84.581427,33.744265000000006,,18223.6,On-Net,Health Insurance,Healthcare,26252.13
52,Opp-000033,Acct-000409,Closed - Lost,True,False,7/6/16,36.0,,New Service,Ethernet,Bldg-014866,Dallas,1950 N Stemmons Fwy,Dallas,TX,75207,239.8,On Zayo Network,,0.0,0.0,49388.884000000005,0.0,1659.6,1811.0279999999998,-96.819612,32.800805,,26388.0,On-Net,Legal,Professional Services,5166.0
53,Opp-000034,Acct-000382,1 - Working,False,False,7/6/16,12.0,,New Service,IP Services,Bldg-014141,Denver,4300 Brighton Blvd,Denver,CO,80216,247.0,On Zayo Network,,0.0,0.0,29767.940000000002,0.0,1536.6666666666667,5859.543333333334,-104.968254,39.777368,,23515.0,Fiber Only,AdTech,Media & Content,3784.38
54,Opp-000035,Acct-000604,5 - Accepted,True,True,7/6/16,12.0,,New Service,Ethernet,Bldg-016856,Atlanta,1033 Jefferson St NW,Atlanta,GA,30318,539.41,On Zayo Network,,16.0,17.0,31254.052499999998,3894067.92,1844.0,1297.81,-84.42146109999999,33.7775391,,22945.84,Fiber Only,Finance - Other,Finance,26159.0
55,Opp-000035,Acct-000604,5 - Accepted,True,True,7/6/16,12.0,,New Service,Ethernet,Bldg-019879,Atlanta,2836 Peterson Pl NW,Norcross,GA,30071,2357.82,Not on Zayo Network,,16.0,17.0,31254.052499999998,3894067.92,1844.0,1297.81,-84.2267439,33.9381625,,66587.68,Type 2,Finance - Other,Finance,26159.0
56,Opp-000036,Acct-000035,1 - Working,False,False,7/6/16,36.0,,New Service,Ethernet,Bldg-017035,Denver,910 15th St,Denver,CO,80202,96.49,On Zayo Network,,0.0,0.0,30888.800999999996,0.0,915.9997,1540.1597,-104.995682,39.74556,,16742.05,On-Net,National Carrier/ISP,Telecommunications,1700.0
57,Opp-000037,Acct-000949,5 - Accepted,True,True,7/6/16,36.0,,New Service,IP Services,Bldg-117716,Dallas,6653 Pinecrest Dr,Plano,TX,75024,535.09,On Zayo Network,,74042.0,73700.0,55467.46,43464924000.0,922.0,2369.91,-96.81099300000001,33.064858,,25377.25,Fiber Only,Cloud Service Provider,IT Infrastructure,227329.0
58,Opp-000038,Acct-000579,5 - Accepted,True,True,7/7/16,36.0,,New Service,Wavelengths - Long Haul,Bldg-078151,Denver,639 E 18th Ave,Denver,CO,80203,80.1,On Zayo Network,,0.0,0.0,43084.24727272727,0.0,2506.163636363636,2916.9163636363637,-104.9792774,39.74519179999999,,16004.5,On-Net,National Carrier/ISP,Telecommunications,1123818.23
59,Opp-000039,Acct-000340,Closed - Lost,True,False,7/7/16,36.0,,New Service,Ethernet,Bldg-070187,Atlanta,760 Doug Davis Dr,Atlanta,GA,30354,153.79,On Zayo Network,,0.0,0.0,41080.296111111114,0.0,1767.1666666666667,2633.300277777778,-84.415204,33.657159,,14613.7,Fiber Only,,,0.0
60,Opp-000039,Acct-000340,Closed - Lost,True,False,7/7/16,36.0,,New Service,Ethernet,Bldg-434046,Atlanta,5295 Brook Hollow Pkwy,Norcross,GA,30071,122.02,Not on Zayo Network,,0.0,0.0,41080.296111111114,0.0,1767.1666666666667,2633.300277777778,-84.1849962,33.9274748,,13660.6,Fiber Only,,,0.0
61,Opp-000040,Acct-000340,Closed - Lost,True,False,7/7/16,36.0,,New Service,Ethernet,Bldg-070187,Atlanta,760 Doug Davis Dr,Atlanta,GA,30354,153.79,On Zayo Network,,0.0,0.0,41080.296111111114,0.0,1767.1666666666667,2633.300277777778,-84.415204,33.657159,,14613.7,Fiber Only,,,0.0
62,Opp-000040,Acct-000340,Closed - Lost,True,False,7/7/16,36.0,,New Service,Ethernet,Bldg-091976,Atlanta,40 Perimeter Ctr E,Atlanta,GA,30346,3168.87,Not on Zayo Network,,0.0,0.0,41080.296111111114,0.0,1767.1666666666667,2633.300277777778,-84.32682690000001,33.9260138,,86052.88,Fiber Only,,,0.0
63,Opp-000041,Acct-000340,Closed - Lost,True,False,7/7/16,36.0,,New Service,Ethernet,Bldg-038169,Atlanta,3001 Cobb Pkwy SE,Atlanta,GA,30339,239.83,On Zayo Network,,0.0,0.0,41080.296111111114,0.0,1767.1666666666667,2633.300277777778,-84.45719799999999,33.880008000000004,,17194.9,Fiber Only,,,0.0
64,Opp-000041,Acct-000340,Closed - Lost,True,False,7/7/16,36.0,,New Service,Ethernet,Bldg-434046,Atlanta,5295 Brook Hollow Pkwy,Norcross,GA,30071,122.02,Not on Zayo Network,,0.0,0.0,41080.296111111114,0.0,1767.1666666666667,2633.300277777778,-84.1849962,33.9274748,,13660.6,Fiber Only,,,0.0
65,Opp-000042,Acct-000324,Closed - Lost,True,False,7/7/16,36.0,,New Service,Wavelengths - Long Haul,Bldg-014640,Dallas,3180 Irving Blvd,Dallas,TX,75247,297.58,On Zayo Network,,111.0,111.0,17273.89,12078200.0,461.0,1413.885,-96.868566,32.807183,,29854.8,Restricted,Regional Carrier/ISP,Telecommunications,28480.0
66,Opp-000043,Acct-000324,Closed - Lost,True,False,7/7/16,36.0,,New Service,Wavelengths - Long Haul,Bldg-014866,Dallas,1950 N Stemmons Fwy,Dallas,TX,75207,239.8,On Zayo Network,,111.0,111.0,17273.89,12078200.0,461.0,1413.885,-96.819612,32.800805,,26388.0,On-Net,Regional Carrier/ISP,Telecommunications,28480.0
67,Opp-000044,Acct-001020,1 - Working,False,False,7/7/16,12.0,,New Service,IP Services,Bldg-038523,Atlanta,375 Riverside Pkwy,Lithia Springs,GA,30122,274.12,On Zayo Network,,29000.0,0.0,70015.57,0.0,922.0,2934.96,-84.581427,33.744265000000006,,18223.6,On-Net,Health Insurance,Healthcare,26252.13
68,Opp-000045,Acct-000002,Closed - Lost,True,False,7/7/16,12.0,,New Service,Wavelengths - Long Haul,Bldg-014866,Dallas,1950 N Stemmons Fwy,Dallas,TX,75207,239.8,On Zayo Network,,43350.0,43350.0,19287.699023746703,25378360491.8,1353.7565963060686,2117.4700527704485,-96.819612,32.800805,,26388.0,On-Net,National Carrier/ISP,Telecommunications,3344939.0
69,Opp-000046,Acct-000002,Closed - Lost,True,False,7/7/16,12.0,,New Service,Wavelengths - Metro,Bldg-014866,Dallas,1950 N Stemmons Fwy,Dallas,TX,75207,239.8,On Zayo Network,,43350.0,43350.0,19287.699023746703,25378360491.8,1353.7565963060686,2117.4700527704485,-96.819612,32.800805,,26388.0,On-Net,National Carrier/ISP,Telecommunications,3344939.0
70,Opp-000046,Acct-000002,Closed - Lost,True,False,7/7/16,12.0,,New Service,Wavelengths - Metro,Bldg-065056,Dallas,2323 Bryan St,Dallas,TX,75201,64.67,On Zayo Network,,43350.0,43350.0,19287.699023746703,25378360491.8,1353.7565963060686,2117.4700527704485,-96.79411800000001,32.787255,,15880.2,Fiber Only,National Carrier/ISP,Telecommunications,3344939.0
71,Opp-000047,Acct-001121,5 - Accepted,True,True,7/7/16,12.0,,New Service,IP Services,Bldg-070477,Atlanta,3414 Peachtree Rd NE,Atlanta,GA,30326,181.78,On Zayo Network,,0.0,0.0,0.0,0.0,0.0,0.0,-84.363949,33.849889000000005,,15453.4,Fiber Only,Consulting / Other Professional Services,Professional Services,975.34
72,Opp-000048,Acct-000948,Closed - Lost,True,False,7/7/16,36.0,,New Service,Ethernet,Bldg-014866,Dallas,1950 N Stemmons Fwy,Dallas,TX,75207,239.8,On Zayo Network,,0.0,0.0,122523.43749999999,0.0,3688.0,4917.785,-96.819612,32.800805,,26388.0,On-Net,Oil & Gas,Energy,0.0
73,Opp-000049,Acct-000545,2 - Best Case,False,False,7/7/16,36.0,,New Service,Ethernet,Bldg-015161,Dallas,400 S Akard St,Dallas,TX,75202,80.14,On Zayo Network,,25.0,25.0,14518.69076923077,1659600.0,826.2538461538461,1855.3984615384616,-96.79855,32.778334,,16808.4,Fiber Only,National Carrier/ISP,Telecommunications,3389.0
74,Opp-000050,Acct-000341,Closed - Lost,True,False,7/7/16,36.0,,New Service,IP Services,Bldg-065056,Dallas,2323 Bryan St,Dallas,TX,75201,64.67,On Zayo Network,,0.0,0.0,17133.201666666668,0.0,1075.6666666666667,795.2883333333333,-96.79411800000001,32.787255,,15880.2,Fiber Only,Reseller,Telecommunications,186314.71
75,Opp-000051,Acct-000579,5 - Accepted,True,True,7/7/16,36.0,,New Service,Wavelengths - Long Haul,Bldg-078151,Denver,639 E 18th Ave,Denver,CO,80203,80.1,On Zayo Network,,0.0,0.0,43084.24727272727,0.0,2506.163636363636,2916.9163636363637,-104.9792774,39.74519179999999,,16004.5,On-Net,National Carrier/ISP,Telecommunications,1123818.23
76,Opp-000052,Acct-000341,5 - Accepted,True,True,7/7/16,36.0,,New Service,IP Services,Bldg-065056,Dallas,2323 Bryan St,Dallas,TX,75201,64.67,On Zayo Network,,0.0,0.0,17133.201666666668,0.0,1075.6666666666667,795.2883333333333,-96.79411800000001,32.787255,,15880.2,Fiber Only,Reseller,Telecommunications,186314.71
77,Opp-000053,Acct-000036,1 - Working,False,False,7/7/16,-1.0,,New Service,Wavelengths - Long Haul,Bldg-117188,Dallas,6000 Connection Dr,Irving,TX,75039,759.21,Not on Zayo Network,,34518.0,34518.0,37695.075,9277969886.09,2766.0,2025.41,-96.96595400000001,32.89366,,30980.25,Stubbed,Wireless,Telecommunications,5105015.0
78,Opp-000054,Acct-000948,1 - Working,False,False,7/7/16,-1.0,,New Service,Ethernet,Bldg-014866,Dallas,1950 N Stemmons Fwy,Dallas,TX,75207,239.8,On Zayo Network,,0.0,0.0,122523.43749999999,0.0,3688.0,4917.785,-96.819612,32.800805,,26388.0,On-Net,Oil & Gas,Energy,0.0
79,Opp-000055,Acct-000293,2 - Best Case,False,False,7/7/16,24.0,,New Service,Wavelengths - Long Haul,Bldg-012582,Atlanta,56 Marietta St NW,Atlanta,GA,30303,66.45,On Zayo Network,,25.0,25.0,159121.98,8789391.89,2766.0,14539.385,-84.391561,33.755431,,11993.5,On-Net,Internet Content & Software,Media & Content,57524.0
80,Opp-000055,Acct-000293,2 - Best Case,False,False,7/7/16,24.0,,New Service,Wavelengths - Long Haul,Bldg-014866,Dallas,1950 N Stemmons Fwy,Dallas,TX,75207,239.8,On Zayo Network,,25.0,25.0,159121.98,8789391.89,2766.0,14539.385,-96.819612,32.800805,,26388.0,On-Net,Internet Content & Software,Media & Content,57524.0
81,Opp-000055,Acct-000293,2 - Best Case,False,False,7/7/16,24.0,,New Service,Wavelengths - Long Haul,Bldg-038059,Atlanta,1003 Donnelly Ave SW,Atlanta,GA,30310,57.36,On Zayo Network,,25.0,25.0,159121.98,8789391.89,2766.0,14539.385,-84.420197,33.729225,,11720.8,Fiber Only,Internet Content & Software,Media & Content,57524.0
82,Opp-000056,Acct-000246,5 - Accepted,True,True,7/7/16,24.0,,New Service,Wavelengths - Long Haul,Bldg-118824,Dallas,801 Industrial Blvd,Grapevine,TX,76051,193.13,On Zayo Network,,5651.0,6189.0,34485.6475,1654397154.0,1613.5,2601.8325,-97.1042919,32.9301381,,23587.8,On-Net,Cloud Service Provider,IT Infrastructure,98448.0
83,Opp-000057,Acct-000948,1 - Working,False,False,7/7/16,-1.0,,New Service,Ethernet,Bldg-014866,Dallas,1950 N Stemmons Fwy,Dallas,TX,75207,239.8,On Zayo Network,,0.0,0.0,122523.43749999999,0.0,3688.0,4917.785,-96.819612,32.800805,,26388.0,On-Net,Oil & Gas,Energy,0.0
84,Opp-000058,Acct-000025,5 - Accepted,True,True,7/8/16,1.0,,New Service,Dark Fiber - Metro,Bldg-143092,Atlanta,Gresham Rd & Cobb Pkwy SE,Marietta,GA,30060,36.11,On Zayo Network,,10040.0,12500.0,22047.065671641787,6248394000.0,1170.6217412935323,1978.1531840796015,-84.521827,33.953309000000004,,11083.3,Fiber Only,National Carrier/ISP,Telecommunications,4234871.0
85,Opp-000059,Acct-000025,5 - Accepted,True,True,7/8/16,1.0,,New Service,Dark Fiber - Metro,Bldg-435582,Atlanta,Chastain Rd NW & George Busbee Pkwy NW,Kennesaw,GA,30144,54.26,On Zayo Network,,10040.0,12500.0,22047.065671641787,6248394000.0,1170.6217412935323,1978.1531840796015,-84.572221,34.034958,,11627.8,Fiber Only,National Carrier/ISP,Telecommunications,4234871.0
86,Opp-000060,Acct-000273,1 - Working,False,False,7/7/16,120.0,,New Service,FTT - Small Cell,Bldg-296612,Dallas,800 W Randol Mill Rd,Arlington,TX,76012,222.36,On Zayo Network,,397.0,397.0,10717.03875,248747365.62,1480.9625,2156.47875,-97.1162988,32.749437,,25341.6,Restricted,Wireless,Telecommunications,6084906.0
87,Opp-000061,Acct-000948,Closed - Lost,True,False,7/8/16,36.0,,New Service,Ethernet,Bldg-014866,Dallas,1950 N Stemmons Fwy,Dallas,TX,75207,239.8,On Zayo Network,,0.0,0.0,122523.43749999999,0.0,3688.0,4917.785,-96.819612,32.800805,,26388.0,On-Net,Oil & Gas,Energy,0.0
88,Opp-000062,Acct-000958,Closed - Lost,True,False,7/8/16,36.0,,New Service,IP Services,Bldg-109254,Denver,2000 S Colorado Blvd/Annex Bldg,Denver,CO,80222,339.24,On Zayo Network,,15.0,15.0,15680.666666666666,1844000.0,922.0,790.4933333333333,-104.937182,39.680732,,27665.8,Fiber Only,Consulting / Other Professional Services,Professional Services,0.0
89,Opp-000063,Acct-000948,Closed - Lost,True,False,7/8/16,36.0,,New Service,IP Services,Bldg-014866,Dallas,1950 N Stemmons Fwy,Dallas,TX,75207,239.8,On Zayo Network,,0.0,0.0,122523.43749999999,0.0,3688.0,4917.785,-96.819612,32.800805,,26388.0,On-Net,Oil & Gas,Energy,0.0
90,Opp-000064,Acct-000545,1 - Working,False,False,7/8/16,36.0,,New Service,Ethernet,Bldg-480727,Dallas,501 Duncan Perry Rd,Arlington,TX,76011,1060.29,Not on Zayo Network,,25.0,25.0,14518.69076923077,1659600.0,826.2538461538461,1855.3984615384616,-97.0409166,32.7474538,,38507.25,On-Net,National Carrier/ISP,Telecommunications,3389.0
91,Opp-000065,Acct-000333,Closed - Lost,True,False,7/8/16,36.0,,New Service,Wavelengths - Long Haul,Bldg-012582,Atlanta,56 Marietta St NW,Atlanta,GA,30303,66.45,On Zayo Network,,241359.0,234598.0,813.4733333333334,94138044000.0,2557.7816666666663,3847.310416666667,-84.391561,33.755431,,11993.5,On-Net,Finance - Other,Finance,518767.0
92,Opp-000065,Acct-000333,Closed - Lost,True,False,7/8/16,36.0,,New Service,Wavelengths - Long Haul,Bldg-014866,Dallas,1950 N Stemmons Fwy,Dallas,TX,75207,239.8,On Zayo Network,,241359.0,234598.0,813.4733333333334,94138044000.0,2557.7816666666663,3847.310416666667,-96.819612,32.800805,,26388.0,On-Net,Finance - Other,Finance,518767.0
93,Opp-000066,Acct-000286,Closed - Lost,True,False,7/8/16,-1.0,,New Service,Wavelengths - Long Haul,Bldg-014866,Dallas,1950 N Stemmons Fwy,Dallas,TX,75207,239.8,On Zayo Network,,75.0,75.0,30081.1875,31079366.08,1256.2250000000001,1677.8054166666668,-96.819612,32.800805,,26388.0,On-Net,Regional Carrier/ISP,Telecommunications,16802.0
94,Opp-000067,Acct-000286,Closed - Lost,True,False,7/8/16,-1.0,,New Service,Wavelengths - Long Haul,Bldg-014866,Dallas,1950 N Stemmons Fwy,Dallas,TX,75207,239.8,On Zayo Network,,75.0,75.0,30081.1875,31079366.08,1256.2250000000001,1677.8054166666668,-96.819612,32.800805,,26388.0,On-Net,Regional Carrier/ISP,Telecommunications,16802.0
95,Opp-000068,Acct-000408,5 - Accepted,True,True,7/8/16,36.0,,New Service,IP Services,Bldg-118217,Dallas,1100 Empire Central Pl,Dallas,TX,75247,351.63,On Zayo Network,,0.0,0.0,24483.801,0.0,922.0,1211.261,-96.87364509999999,32.8217917,,33097.8,On-Net,Commercial Systems Integrator,Professional Services,12735.76
96,Opp-000069,Acct-001122,1 - Working,False,False,7/8/16,36.0,,New Service,Wavelengths - Long Haul,Bldg-012582,Atlanta,56 Marietta St NW,Atlanta,GA,30303,66.45,On Zayo Network,,0.0,0.0,0.0,0.0,0.0,0.0,-84.391561,33.755431,,11993.5,On-Net,Cable & Satellite,Media & Content,100245.0
97,Opp-000070,Acct-000038,5 - Accepted,True,True,7/8/16,240.0,,New Service,Dark Fiber - Metro,Bldg-016855,Atlanta,300 Satellite Blvd NW,Suwanee,GA,30024,374.79,On Zayo Network,,61814.0,61814.0,13079.0365625,69139858000.0,1555.875,1186.4590625,-84.0608807,34.035421299999996,,21243.7,On-Net,Internet Content & Software,Media & Content,1183550.0
98,Opp-000070,Acct-000038,5 - Accepted,True,True,7/8/16,240.0,,New Service,Dark Fiber - Metro,Bldg-403622,Atlanta,980 Walther Blvd,Lawrenceville,GA,30043,18091.79,On Zayo Network,,61814.0,61814.0,13079.0365625,69139858000.0,1555.875,1186.4590625,-84.014576,33.974537,,444202.96,Fiber Only,Internet Content & Software,Media & Content,1183550.0
99,Opp-000071,Acct-001123,Closed - Lost,True,False,7/8/16,12.0,,New Service,Wavelengths - Long Haul,Bldg-014866,Dallas,1950 N Stemmons Fwy,Dallas,TX,75207,239.8,On Zayo Network,,0.0,0.0,0.0,0.0,0.0,0.0,-96.819612,32.800805,,26388.0,On-Net,Colo/Hosting,IT Infrastructure,3823.13
100,Opp-000072,Acct-000178,Closed - Lost,True,False,7/8/16,36.0,,New Service,IP Services,Bldg-266860,Denver,7600 Landmark Way,Greenwood Village,CO,80111,133.52,Not on Zayo Network,,0.0,0.0,49103.67,0.0,2620.7850000000003,2983.6911666666665,-104.8997303,39.6172796,,18408.4,Fiber Only,Wireless,Telecommunications,0.0
101,Opp-000073,Acct-000004,5 - Accepted,True,True,7/8/16,252.0,,New Service,FTT - Dark Fiber,Bldg-015169,Denver,1425 Champa St,Denver,CO,80202,148.72,On Zayo Network,,30000.0,30000.0,27361.701212121217,29669960000.0,1322.2318181818182,1704.0633333333337,-104.996223,39.745214000000004,,19092.4,On-Net,Wireless,Telecommunications,3510947.0
102,Opp-000074,Acct-000167,5 - Accepted,True,True,7/8/16,36.0,,New Service,Wavelengths - Long Haul,Bldg-017035,Denver,910 15th St,Denver,CO,80202,96.49,On Zayo Network,,0.0,0.0,28423.695,0.0,2766.0,2738.755,-104.995682,39.74556,,16742.05,On-Net,National Carrier/ISP,Telecommunications,1156722.8
103,Opp-000075,Acct-000004,5 - Accepted,True,True,7/8/16,252.0,,New Service,FTT - Dark Fiber,Bldg-015169,Denver,1425 Champa St,Denver,CO,80202,148.72,On Zayo Network,,30000.0,30000.0,27361.701212121217,29669960000.0,1322.2318181818182,1704.0633333333337,-104.996223,39.745214000000004,,19092.4,On-Net,Wireless,Telecommunications,3510947.0
104,Opp-000076,Acct-000004,5 - Accepted,True,True,7/8/16,252.0,,New Service,FTT - Dark Fiber,Bldg-015169,Denver,1425 Champa St,Denver,CO,80202,148.72,On Zayo Network,,30000.0,30000.0,27361.701212121217,29669960000.0,1322.2318181818182,1704.0633333333337,-104.996223,39.745214000000004,,19092.4,On-Net,Wireless,Telecommunications,3510947.0
105,Opp-000077,Acct-000004,5 - Accepted,True,True,7/8/16,252.0,,New Service,FTT - Dark Fiber,Bldg-015169,Denver,1425 Champa St,Denver,CO,80202,148.72,On Zayo Network,,30000.0,30000.0,27361.701212121217,29669960000.0,1322.2318181818182,1704.0633333333337,-104.996223,39.745214000000004,,19092.4,On-Net,Wireless,Telecommunications,3510947.0
106,Opp-000078,Acct-000004,5 - Accepted,True,True,7/8/16,252.0,,New Service,FTT - Dark Fiber,Bldg-015169,Denver,1425 Champa St,Denver,CO,80202,148.72,On Zayo Network,,30000.0,30000.0,27361.701212121217,29669960000.0,1322.2318181818182,1704.0633333333337,-104.996223,39.745214000000004,,19092.4,On-Net,Wireless,Telecommunications,3510947.0
107,Opp-000079,Acct-000957,Closed - Lost,True,False,7/8/16,36.0,,New Service,IP Services,Bldg-109818,Dallas,222 W Las Colinas Blvd,Irving,TX,75039,315.99,On Zayo Network,,0.0,0.0,15853.88,0.0,922.0,1040.65,-96.943924,32.871478,,30959.4,Restricted,Asset Management / Hedge Fund,Finance,0.0
108,Opp-000080,Acct-000004,5 - Accepted,True,True,7/8/16,252.0,,New Service,FTT - Dark Fiber,Bldg-015169,Denver,1425 Champa St,Denver,CO,80202,148.72,On Zayo Network,,30000.0,30000.0,27361.701212121217,29669960000.0,1322.2318181818182,1704.0633333333337,-104.996223,39.745214000000004,,19092.4,On-Net,Wireless,Telecommunications,3510947.0
109,Opp-000081,Acct-000004,5 - Accepted,True,True,7/8/16,252.0,,New Service,FTT - Dark Fiber,Bldg-015169,Denver,1425 Champa St,Denver,CO,80202,148.72,On Zayo Network,,30000.0,30000.0,27361.701212121217,29669960000.0,1322.2318181818182,1704.0633333333337,-104.996223,39.745214000000004,,19092.4,On-Net,Wireless,Telecommunications,3510947.0
110,Opp-000082,Acct-000004,5 - Accepted,True,True,7/8/16,252.0,,New Service,FTT - Dark Fiber,Bldg-015169,Denver,1425 Champa St,Denver,CO,80202,148.72,On Zayo Network,,30000.0,30000.0,27361.701212121217,29669960000.0,1322.2318181818182,1704.0633333333337,-104.996223,39.745214000000004,,19092.4,On-Net,Wireless,Telecommunications,3510947.0
111,Opp-000083,Acct-000019,1 - Working,False,False,7/9/16,60.0,,New Service,Wavelengths - Long Haul,Bldg-014866,Dallas,1950 N Stemmons Fwy,Dallas,TX,75207,239.8,On Zayo Network,,0.0,0.0,53023.202217194565,0.0,13306.329570135746,2934.3505882352943,-96.819612,32.800805,,26388.0,On-Net,National Carrier/ISP,Telecommunications,22141.48
112,Opp-000084,Acct-001046,2 - Best Case,False,False,7/9/16,36.0,,New Service,Wavelengths - Long Haul,Bldg-090300,Dallas,3010 Waterview Pkwy,Richardson,TX,75080,436.62,On Zayo Network,,35.0,35.0,0.0,6697904.04,2766.0,2791.26,-96.752465,32.994824,,38197.2,Fiber Only,Finance - Other,Finance,22309.0
113,Opp-000085,Acct-000955,1 - Working,False,False,7/11/16,36.0,,New Service,Ethernet,Bldg-017035,Denver,910 15th St,Denver,CO,80202,96.49,On Zayo Network,,24.0,24.0,40942.244999999995,14752000.0,922.0,1749.83,-104.995682,39.74556,,16742.05,On-Net,Regional Carrier/ISP,Telecommunications,8172.0
114,Opp-000086,Acct-000043,Closed - Lost,True,False,7/11/16,36.0,,New Service,Wavelengths - Long Haul,Bldg-016855,Atlanta,300 Satellite Blvd NW,Suwanee,GA,30024,374.79,On Zayo Network,,790.0,790.0,29219.938542141233,180692122.6,1399.8028246013669,2331.1037129840543,-84.0608807,34.035421299999996,,21243.7,On-Net,Colo/Hosting,IT Infrastructure,109515.0
115,Opp-000087,Acct-000820,Closed - Lost,True,False,7/11/16,36.0,,New Service,Ethernet,Bldg-030642,Denver,393 Inverness Pkwy,Englewood,CO,80112,96.73,On Zayo Network,,0.0,0.0,36926.663846153846,0.0,2305.0,2146.787692307692,-104.86654820000001,39.5643596,,16752.85,On-Net,Hospital/Clinic,Healthcare,55924.0
116,Opp-000087,Acct-000820,Closed - Lost,True,False,7/11/16,36.0,,New Service,Ethernet,Bldg-038071,Atlanta,1100 White St SW,Atlanta,GA,30310,297.34,On Zayo Network,,0.0,0.0,36926.663846153846,0.0,2305.0,2146.787692307692,-84.4256845,33.733839200000006,,18920.2,Fiber Only,Hospital/Clinic,Healthcare,55924.0
117,Opp-000088,Acct-000442,5 - Accepted,True,True,7/11/16,36.0,,New Service,Ethernet,Bldg-110290,Dallas,2914 Taylor St,Dallas,TX,75226,160.31,On Zayo Network,,9.0,9.0,39677.396896551734,1106400.0,1510.1724137931035,1713.4465517241379,-96.78086970000001,32.7813744,,21618.6,Fiber Only,Colo/Hosting,IT Infrastructure,11512.0
118,Opp-000088,Acct-000442,5 - Accepted,True,True,7/11/16,36.0,,New Service,Ethernet,Bldg-458042,Dallas,1530 Inspiration Dr,Dallas,TX,75207,561.44,On Zayo Network,,9.0,9.0,39677.396896551734,1106400.0,1510.1724137931035,1713.4465517241379,-96.816037,32.791441,,26036.0,Fiber Only,Colo/Hosting,IT Infrastructure,11512.0
119,Opp-000089,Acct-000442,5 - Accepted,True,True,7/11/16,36.0,,New Service,Dark Fiber - Metro,Bldg-140252,Dallas,2500 Victory Ave,Dallas,TX,75219,767.17,On Zayo Network,,9.0,9.0,39677.396896551734,1106400.0,1510.1724137931035,1713.4465517241379,-96.810159,32.790442,,31179.25,On-Net,Colo/Hosting,IT Infrastructure,11512.0
120,Opp-000089,Acct-000442,5 - Accepted,True,True,7/11/16,36.0,,New Service,Dark Fiber - Metro,Bldg-458042,Dallas,1530 Inspiration Dr,Dallas,TX,75207,561.44,On Zayo Network,,9.0,9.0,39677.396896551734,1106400.0,1510.1724137931035,1713.4465517241379,-96.816037,32.791441,,26036.0,Fiber Only,Colo/Hosting,IT Infrastructure,11512.0
121,Opp-000090,Acct-000507,Closed - Lost,True,False,7/11/16,60.0,,New Service,Wavelengths - Long Haul,Bldg-017035,Denver,910 15th St,Denver,CO,80202,96.49,On Zayo Network,,82.0,131.0,8894.151428571427,32304233.86,2403.785714285714,5790.32,-104.995682,39.74556,,16742.05,On-Net,PTT,Telecommunications,81290.0
122,Opp-000091,Acct-000106,Closed - Lost,True,False,7/11/16,-1.0,,New Service,IP Services,Bldg-018754,Atlanta,180 Peachtree St NW,Atlanta,GA,30303,1055.22,On Zayo Network,,3866.0,5042.0,53854.87333333334,2253161472.0,1814.170588235294,2732.149215686274,-84.38769,33.758884,,35325.28,On-Net,Colo/Hosting,IT Infrastructure,241918.0
123,Opp-000092,Acct-000948,Closed - Lost,True,False,7/11/16,36.0,,New Service,IP Services,Bldg-014866,Dallas,1950 N Stemmons Fwy,Dallas,TX,75207,239.8,On Zayo Network,,0.0,0.0,122523.43749999999,0.0,3688.0,4917.785,-96.819612,32.800805,,26388.0,On-Net,Oil & Gas,Energy,0.0
124,Opp-000093,Acct-000036,5 - Accepted,True,True,7/11/16,84.0,,New Service,FTT - Ethernet,Bldg-111677,Denver,7111 Montview Blvd,Denver,CO,80220,178.02,On Zayo Network,,34518.0,34518.0,37695.075,9277969886.09,2766.0,2025.41,-104.905603,39.748053000000006,,20410.9,Restricted,Wireless,Telecommunications,5105015.0
125,Opp-000094,Acct-000169,1 - Working,False,False,7/11/16,-1.0,,New Service,Ethernet,Bldg-017035,Denver,910 15th St,Denver,CO,80202,96.49,On Zayo Network,,2.0,3.0,21348.63875,33614.28,2139.8083333333334,4282.82125,-104.995682,39.74556,,16742.05,On-Net,Commercial Systems Integrator,Professional Services,9176.0
126,Opp-000094,Acct-000169,1 - Working,False,False,7/11/16,-1.0,,New Service,Ethernet,Bldg-124374,Denver,6145 Broadway,Denver,CO,80216,629.46,On Zayo Network,,2.0,3.0,21348.63875,33614.28,2139.8083333333334,4282.82125,-104.987669,39.807434,,31283.8,Restricted,Commercial Systems Integrator,Professional Services,9176.0
127,Opp-000095,Acct-000169,1 - Working,False,False,7/11/16,-1.0,,New Service,Wavelengths - Long Haul,Bldg-017035,Denver,910 15th St,Denver,CO,80202,96.49,On Zayo Network,,2.0,3.0,21348.63875,33614.28,2139.8083333333334,4282.82125,-104.995682,39.74556,,16742.05,On-Net,Commercial Systems Integrator,Professional Services,9176.0
128,Opp-000096,Acct-000072,5 - Accepted,True,True,7/11/16,1.0,,New Service,Dark Fiber - Metro,Bldg-424243,Dallas,2021 McKinney Ave,Dallas,TX,75201,492.72,On Zayo Network,,431.0,475.0,29561.68743455497,109048721.12,1080.3329842931937,2066.148219895288,-96.8037103,32.7914713,,41563.2,On-Net,National Carrier/ISP,Telecommunications,1307326.0
129,Opp-000097,Acct-001124,2 - Best Case,False,False,7/11/16,36.0,,New Service,Dark Fiber - Metro,Bldg-014142,Denver,1500 Champa St,Denver,CO,80202,71.8,On Zayo Network,,0.0,0.0,0.0,0.0,0.0,0.0,-104.994423,39.74576,,15631.0,On-Net,Hospitality,Other Industry,0.0
130,Opp-000097,Acct-001124,2 - Best Case,False,False,7/11/16,36.0,,New Service,Dark Fiber - Metro,Bldg-058803,Denver,11900 E Cornell Ave,Aurora,CO,80014,447.82,On Zayo Network,,0.0,0.0,0.0,0.0,0.0,0.0,-104.850001,39.660965999999995,,32551.9,On-Net,Hospitality,Other Industry,0.0
131,Opp-000098,Acct-001011,Closed - Lost,True,False,7/11/16,36.0,,New Service,Dark Fiber - Metro,Bldg-481035,Denver,299 Milwaukee St,Denver,CO,80206,1711.86,Not on Zayo Network,,0.0,0.0,192215.5,0.0,2766.0,20376.61,-104.9525594,39.7203203,,63755.8,Fiber Only,Consulting / Other Professional Services,Professional Services,0.0
132,Opp-000098,Acct-001011,Closed - Lost,True,False,7/11/16,36.0,,New Service,Dark Fiber - Metro,Bldg-243425,Denver,2905 Inca St,Denver,CO,80202,2152.77,Not on Zayo Network,,0.0,0.0,192215.5,0.0,2766.0,20376.61,-104.99932140000001,39.7595915,,76983.1,Fiber Only,Consulting / Other Professional Services,Professional Services,0.0
133,Opp-000098,Acct-001011,Closed - Lost,True,False,7/11/16,36.0,,New Service,Dark Fiber - Metro,Bldg-243097,Denver,444 E 19th Ave,Denver,CO,80203,1.08,Not on Zayo Network,,0.0,0.0,192215.5,0.0,2766.0,20376.61,-104.98174399999999,39.746164,,12448.6,Fiber Only,Consulting / Other Professional Services,Professional Services,0.0
134,Opp-000099,Acct-000449,1 - Working,False,False,7/12/16,12.0,,New Service,Ethernet,Bldg-031512,Dallas,1232 Alma Rd,Richardson,TX,75081,319.37,On Zayo Network,,12.0,12.0,24646.066666666666,13950513.7,1997.6666666666667,2242.346666666667,-96.715742,32.966302,,31162.2,On-Net,Internet Content & Software,Media & Content,1616.0
135,Opp-000100,Acct-001016,Closed - Lost,True,False,7/12/16,60.0,,New Service,IP Services,Bldg-065056,Dallas,2323 Bryan St,Dallas,TX,75201,64.67,On Zayo Network,,0.0,0.0,10448.326,0.0,922.0,560.3720000000001,-96.79411800000001,32.787255,,15880.2,Fiber Only,Internet Content & Software,Media & Content,434.44
136,Opp-000101,Acct-000063,1 - Working,False,False,7/12/16,-1.0,,New Service,Ethernet,Bldg-139825,Dallas,3004 Irving Blvd,Dallas,TX,75247,296.83,Not on Zayo Network,,0.0,0.0,43216.55371069183,0.0,1337.1899371069183,3280.8931446540882,-96.85769920000001,32.8078387,,29809.8,Fiber Only,,,0.0
137,Opp-000102,Acct-000056,5 - Accepted,True,True,7/12/16,12.0,,New Service,Wavelengths - Metro,Bldg-078056,Dallas,3510 Wyndham Ln,Richardson,TX,75082,255.41,On Zayo Network,,242000.0,213000.0,6702.486666666667,87756882000.0,2766.0,8538.214166666667,-96.686704,32.999934,,27324.6,Fiber Only,Finance - Other,Finance,539570.0
138,Opp-000102,Acct-000056,5 - Accepted,True,True,7/12/16,12.0,,New Service,Wavelengths - Metro,Bldg-117872,Dallas,4500 Amon Carter Blvd,Fort Worth,TX,76155,85.33,On Zayo Network,,242000.0,213000.0,6702.486666666667,87756882000.0,2766.0,8538.214166666667,-97.04868,32.830009999999994,,17119.8,Fiber Only,Finance - Other,Finance,539570.0
139,Opp-000103,Acct-000056,5 - Accepted,True,True,7/12/16,12.0,,New Service,Wavelengths - Metro,Bldg-078056,Dallas,3510 Wyndham Ln,Richardson,TX,75082,255.41,On Zayo Network,,242000.0,213000.0,6702.486666666667,87756882000.0,2766.0,8538.214166666667,-96.686704,32.999934,,27324.6,Fiber Only,Finance - Other,Finance,539570.0
140,Opp-000103,Acct-000056,5 - Accepted,True,True,7/12/16,12.0,,New Service,Wavelengths - Metro,Bldg-118999,Dallas,4200 Amon Carter Blvd,Fort Worth,TX,76155,63.02,On Zayo Network,,242000.0,213000.0,6702.486666666667,87756882000.0,2766.0,8538.214166666667,-97.04903,32.82278,,15781.2,Fiber Only,Finance - Other,Finance,539570.0
141,Opp-000104,Acct-000439,5 - Accepted,True,True,7/12/16,24.0,,New Service,Wavelengths - Long Haul,Bldg-014866,Dallas,1950 N Stemmons Fwy,Dallas,TX,75207,239.8,On Zayo Network,,340.0,340.0,21582.059999999998,74892916.72,2123.962105263158,1777.0878947368424,-96.819612,32.800805,,26388.0,On-Net,Cable & Satellite,Media & Content,141045.0
142,Opp-000105,Acct-000968,1 - Working,False,False,7/12/16,36.0,,New Service,Ethernet,Bldg-109955,Dallas,3000 Irving Blvd,Dallas,TX,75247,117.61,On Zayo Network,,36400.0,36400.0,20543.315000000002,8265283752.0,1055.3049999999998,988.89,-96.85716500000001,32.8084087,,19056.6,On-Net,PTT,Telecommunications,139547.0
143,Opp-000106,Acct-000036,5 - Accepted,True,True,7/12/16,60.0,,New Service,FTT - Ethernet,Bldg-017035,Denver,910 15th St,Denver,CO,80202,96.49,On Zayo Network,,34518.0,34518.0,37695.075,9277969886.09,2766.0,2025.41,-104.995682,39.74556,,16742.05,On-Net,Wireless,Telecommunications,5105015.0
144,Opp-000107,Acct-000312,Closed - Lost,True,False,7/12/16,24.0,,New Service,Wavelengths - Long Haul,Bldg-111386,Denver,3431 N Windsor Dr,Aurora,CO,80011,779.17,On Zayo Network,,2300.0,2300.0,15794.82590909091,991343260.42,1979.1495454545454,3380.6531818181825,-104.762111,39.762776,,35775.1,Fiber Only,Colo/Hosting,IT Infrastructure,515234.0
145,Opp-000108,Acct-000038,5 - Accepted,True,True,7/12/16,240.0,,New Service,Dark Fiber - Metro,Bldg-068765,Atlanta,2770 Skyview Dr,Lithia Springs,GA,30122,9793.98,Not on Zayo Network,,61814.0,61814.0,13079.0365625,69139858000.0,1555.875,1186.4590625,-84.637461,33.7871,,245055.52,Type 2,Internet Content & Software,Media & Content,1183550.0
146,Opp-000108,Acct-000038,5 - Accepted,True,True,7/12/16,240.0,,New Service,Dark Fiber - Metro,Bldg-481080,Atlanta,2750 Skyview Dr E,Lithia Springs,GA,30122,-1.0,Not on Zayo Network,,61814.0,61814.0,13079.0365625,69139858000.0,1555.875,1186.4590625,-84.63404,33.785759999999996,,10000.0,Stubbed,Internet Content & Software,Media & Content,1183550.0
147,Opp-000108,Acct-000038,5 - Accepted,True,True,7/12/16,240.0,,New Service,Dark Fiber - Metro,Bldg-438377,Atlanta,3201 Sunrise Village Ln,Norcross,GA,30093,10539.09,Not on Zayo Network,,61814.0,61814.0,13079.0365625,69139858000.0,1555.875,1186.4590625,-84.194918,33.888726,,262938.16,Stubbed,Internet Content & Software,Media & Content,1183550.0
148,Opp-000108,Acct-000038,5 - Accepted,True,True,7/12/16,240.0,,New Service,Dark Fiber - Metro,Bldg-438383,Atlanta,5375 Sugarloaf Pkwy,Lawrenceville,GA,30043,5684.72,On Zayo Network,,61814.0,61814.0,13079.0365625,69139858000.0,1555.875,1186.4590625,-84.066763,33.966103000000004,,146433.28,Fiber Only,Internet Content & Software,Media & Content,1183550.0
149,Opp-000109,Acct-001125,Closed - Lost,True,False,7/12/16,36.0,,New Service,Wavelengths - Long Haul,Bldg-359461,Dallas,3001 Hackberry Rd,Irving,TX,75063,268.84,On Zayo Network,,111300.0,101800.0,0.0,28740079358.05,0.0,0.0,-96.9852418,32.926302500000006,,28130.4,Fiber Only,Commercial Systems Integrator,Professional Services,195361.0
150,Opp-000110,Acct-000013,1 - Working,False,False,7/12/16,-1.0,,New Service,Dark Fiber - Metro,Bldg-038251,Atlanta,6000 Feldwood Rd,Atlanta,GA,30349,397.15,On Zayo Network,,40000.0,40000.0,32009.30836697248,10779768901.96,1315.7018165137615,2418.917541284404,-84.5145239,33.5896154,,21914.5,Fiber Only,National Carrier/ISP,Telecommunications,5117529.0
151,Opp-000110,Acct-000013,1 - Working,False,False,7/12/16,-1.0,,New Service,Dark Fiber - Metro,Bldg-038290,Atlanta,999 Lee St SW,Atlanta,GA,30310,117.97,Not on Zayo Network,,40000.0,40000.0,32009.30836697248,10779768901.96,1315.7018165137615,2418.917541284404,-84.4178833,33.7279946,,13539.1,Stubbed,National Carrier/ISP,Telecommunications,5117529.0
152,Opp-000111,Acct-000002,5 - Accepted,True,True,7/12/16,24.0,,New Service,Wavelengths - Long Haul,Bldg-018754,Atlanta,180 Peachtree St NW,Atlanta,GA,30303,1055.22,On Zayo Network,,43350.0,43350.0,19287.699023746703,25378360491.8,1353.7565963060686,2117.4700527704485,-84.38769,33.758884,,35325.28,On-Net,National Carrier/ISP,Telecommunications,3344939.0
153,Opp-000112,Acct-000002,1 - Working,False,False,7/13/16,-1.0,,New Service,Wavelengths - Metro,Bldg-038587,Dallas,4100 Bryan St,Dallas,TX,75204,220.45,On Zayo Network,,43350.0,43350.0,19287.699023746703,25378360491.8,1353.7565963060686,2117.4700527704485,-96.7800473,32.7974974,,25227.0,Fiber Only,National Carrier/ISP,Telecommunications,3344939.0
154,Opp-000112,Acct-000002,1 - Working,False,False,7/13/16,-1.0,,New Service,Wavelengths - Metro,Bldg-118217,Dallas,1100 Empire Central Pl,Dallas,TX,75247,351.63,On Zayo Network,,43350.0,43350.0,19287.699023746703,25378360491.8,1353.7565963060686,2117.4700527704485,-96.87364509999999,32.8217917,,33097.8,On-Net,National Carrier/ISP,Telecommunications,3344939.0
155,Opp-000113,Acct-000002,1 - Working,False,False,7/13/16,-1.0,,New Service,Wavelengths - Metro,Bldg-038587,Dallas,4100 Bryan St,Dallas,TX,75204,220.45,On Zayo Network,,43350.0,43350.0,19287.699023746703,25378360491.8,1353.7565963060686,2117.4700527704485,-96.7800473,32.7974974,,25227.0,Fiber Only,National Carrier/ISP,Telecommunications,3344939.0
156,Opp-000113,Acct-000002,1 - Working,False,False,7/13/16,-1.0,,New Service,Wavelengths - Metro,Bldg-118217,Dallas,1100 Empire Central Pl,Dallas,TX,75247,351.63,On Zayo Network,,43350.0,43350.0,19287.699023746703,25378360491.8,1353.7565963060686,2117.4700527704485,-96.87364509999999,32.8217917,,33097.8,On-Net,National Carrier/ISP,Telecommunications,3344939.0
157,Opp-000114,Acct-001126,Closed - Lost,True,False,7/13/16,12.0,,New Service,IP Services,Bldg-481082,Dallas,2258 Grasshopper,Anna,TX,75409,-1.0,Not on Zayo Network,,0.0,0.0,0.0,0.0,0.0,0.0,-96.5426093,33.376457,,12000.0,Fiber Only,Wireless,Telecommunications,0.0
158,Opp-000115,Acct-000224,5 - Accepted,True,True,7/14/16,36.0,,New Service,Ethernet,Bldg-111847,Denver,5750 DTC Pkwy,Englewood,CO,80111,122.72,On Zayo Network,,0.0,0.0,38596.08864583333,0.0,1811.3458333333335,2845.5698958333337,-104.8896581,39.61318729999999,,17922.4,Fiber Only,Regional Carrier/ISP,Telecommunications,468014.08
159,Opp-000116,Acct-000497,5 - Accepted,True,True,7/13/16,36.0,,New Service,IP Services,Bldg-133310,Denver,11800 Ridge Pkwy,Broomfield,CO,80021,1084.65,Not on Zayo Network,,44.0,44.0,18531.054444444442,4886600.0,1869.611111111111,2014.3055555555557,-105.1495832,39.910329,,44939.5,Fiber Only,Internet Content & Software,Media & Content,19284.0
160,Opp-000117,Acct-000013,5 - Accepted,True,True,7/13/16,36.0,,New Service,Ethernet,Bldg-223929,Denver,8675 Concord Center Dr,Englewood,CO,80112,234.79,On Zayo Network,,40000.0,40000.0,32009.30836697248,10779768901.96,1315.7018165137615,2418.917541284404,-104.831897,39.559450700000006,,22965.55,On-Net,National Carrier/ISP,Telecommunications,5117529.0
161,Opp-000118,Acct-000699,Closed - Lost,True,False,7/13/16,36.0,,New Service,IP Services,Bldg-481076,Atlanta,3615 Cherokee St NW,Kennesaw,GA,30144,-1.0,Not on Zayo Network,,0.0,0.0,50717.63785714286,0.0,1448.857142857143,3078.683571428572,-84.6056888,34.041733,,10000.0,Fiber Only,Consulting / Other Professional Services,Professional Services,0.0
162,Opp-000119,Acct-000009,5 - Accepted,True,True,7/14/16,36.0,,New Service,Ethernet,Bldg-065056,Dallas,2323 Bryan St,Dallas,TX,75201,64.67,On Zayo Network,,12626.0,12326.0,22584.21958333333,5374799000.0,1109.8575,2183.6229000000003,-96.79411800000001,32.787255,,15880.2,Fiber Only,National Carrier/ISP,Telecommunications,1915889.0
163,Opp-000119,Acct-000009,5 - Accepted,True,True,7/14/16,36.0,,New Service,Ethernet,Bldg-127057,Dallas,1649 W Frankford Rd,Carrollton,TX,75007,630.74,On Zayo Network,,12626.0,12326.0,22584.21958333333,5374799000.0,1109.8575,2183.6229000000003,-96.930441,32.992076000000004,,27768.5,Fiber Only,National Carrier/ISP,Telecommunications,1915889.0
164,Opp-000120,Acct-000971,Closed - Lost,True,False,7/14/16,-1.0,,New Service,Ethernet,Bldg-012582,Atlanta,56 Marietta St NW,Atlanta,GA,30303,66.45,On Zayo Network,,660.0,660.0,69025.12,44809200.0,1152.5,3355.99,-84.391561,33.755431,,11993.5,On-Net,Consulting / Other Professional Services,Professional Services,6321.0
165,Opp-000120,Acct-000971,Closed - Lost,True,False,7/14/16,-1.0,,New Service,Ethernet,Bldg-033953,Atlanta,11650 Great Oaks Way,Alpharetta,GA,30022,2137.78,On Zayo Network,,660.0,660.0,69025.12,44809200.0,1152.5,3355.99,-84.272632,34.063368,,61306.72,On-Net,Consulting / Other Professional Services,Professional Services,6321.0
166,Opp-000121,Acct-000971,Closed - Lost,True,False,7/14/16,-1.0,,New Service,Ethernet,Bldg-033953,Atlanta,11650 Great Oaks Way,Alpharetta,GA,30022,2137.78,On Zayo Network,,660.0,660.0,69025.12,44809200.0,1152.5,3355.99,-84.272632,34.063368,,61306.72,On-Net,Consulting / Other Professional Services,Professional Services,6321.0
167,Opp-000121,Acct-000971,Closed - Lost,True,False,7/14/16,-1.0,,New Service,Ethernet,Bldg-060240,Atlanta,1255 Alderman Dr,Alpharetta,GA,30005,296.34,On Zayo Network,,660.0,660.0,69025.12,44809200.0,1152.5,3355.99,-84.245812,34.097095,,18890.2,On-Net,Consulting / Other Professional Services,Professional Services,6321.0
168,Opp-000122,Acct-000971,Closed - Lost,True,False,7/14/16,60.0,,New Service,Ethernet,Bldg-060240,Atlanta,1255 Alderman Dr,Alpharetta,GA,30005,296.34,On Zayo Network,,660.0,660.0,69025.12,44809200.0,1152.5,3355.99,-84.245812,34.097095,,18890.2,On-Net,Consulting / Other Professional Services,Professional Services,6321.0
169,Opp-000122,Acct-000971,Closed - Lost,True,False,7/14/16,60.0,,New Service,Ethernet,Bldg-038523,Atlanta,375 Riverside Pkwy,Lithia Springs,GA,30122,274.12,On Zayo Network,,660.0,660.0,69025.12,44809200.0,1152.5,3355.99,-84.581427,33.744265000000006,,18223.6,On-Net,Consulting / Other Professional Services,Professional Services,6321.0
170,Opp-000123,Acct-000971,Closed - Lost,True,False,7/14/16,60.0,,New Service,Ethernet,Bldg-060240,Atlanta,1255 Alderman Dr,Alpharetta,GA,30005,296.34,On Zayo Network,,660.0,660.0,69025.12,44809200.0,1152.5,3355.99,-84.245812,34.097095,,18890.2,On-Net,Consulting / Other Professional Services,Professional Services,6321.0
171,Opp-000123,Acct-000971,Closed - Lost,True,False,7/14/16,60.0,,New Service,Ethernet,Bldg-038523,Atlanta,375 Riverside Pkwy,Lithia Springs,GA,30122,274.12,On Zayo Network,,660.0,660.0,69025.12,44809200.0,1152.5,3355.99,-84.581427,33.744265000000006,,18223.6,On-Net,Consulting / Other Professional Services,Professional Services,6321.0
172,Opp-000124,Acct-000009,Closed - Lost,True,False,7/14/16,-1.0,,New Service,Dark Fiber - Long Haul,Bldg-015500,Dallas,2300 W Plano Pkwy - Bldg C,Plano,TX,75075,657.46,On Zayo Network,,12626.0,12326.0,22584.21958333333,5374799000.0,1109.8575,2183.6229000000003,-96.73684300000001,33.005724,,28436.5,On-Net,National Carrier/ISP,Telecommunications,1915889.0
173,Opp-000125,Acct-000009,Closed - Lost,True,False,7/14/16,-1.0,,New Service,Wavelengths - Long Haul,Bldg-015500,Dallas,2300 W Plano Pkwy - Bldg C,Plano,TX,75075,657.46,On Zayo Network,,12626.0,12326.0,22584.21958333333,5374799000.0,1109.8575,2183.6229000000003,-96.73684300000001,33.005724,,28436.5,On-Net,National Carrier/ISP,Telecommunications,1915889.0
174,Opp-000126,Acct-000188,Closed - Lost,True,False,7/14/16,36.0,,New Service,Ethernet,Bldg-014864,Atlanta,250 Williams St NW,Atlanta,GA,30303,280.06,On Zayo Network,,0.0,0.0,23782.106666666663,0.0,1411.86,1182.7033333333331,-84.3911416,33.7616219,,18401.8,On-Net,Airlines,Transportation & Logistics,35728.02
175,Opp-000127,Acct-000143,1 - Working,False,False,7/14/16,36.0,,New Service,Wavelengths - Metro,Bldg-016566,Dallas,111 Customer Way,Irving,TX,75039,535.5,Not on Zayo Network,,0.0,0.0,33413.167625899274,0.0,1395.266258992806,2821.6705755395683,-96.94004609999999,32.8879831,,25387.5,Type 2,Consulting / Other Professional Services,Professional Services,0.0
176,Opp-000127,Acct-000143,1 - Working,False,False,7/14/16,36.0,,New Service,Wavelengths - Metro,Bldg-029754,Dallas,1700 Pacific Ave,Dallas,TX,75201,182.47,On Zayo Network,,0.0,0.0,33413.167625899274,0.0,1395.266258992806,2821.6705755395683,-96.796669,32.782501,,22948.2,Fiber Only,Consulting / Other Professional Services,Professional Services,0.0
177,Opp-000128,Acct-000067,2 - Best Case,False,False,7/14/16,36.0,,New Service,Ethernet,Bldg-014866,Dallas,1950 N Stemmons Fwy,Dallas,TX,75207,239.8,On Zayo Network,,0.0,0.0,24321.688000000002,0.0,875.9,1417.9009999999998,-96.819612,32.800805,,26388.0,On-Net,Regional Carrier/ISP,Telecommunications,50816.0
178,Opp-000129,Acct-000970,Closed - Lost,True,False,7/14/16,-1.0,,New Service,Dark Fiber - Metro,Bldg-127057,Dallas,1649 W Frankford Rd,Carrollton,TX,75007,630.74,On Zayo Network,,1.0,1.0,59322.705,23274.97,4610.0,6713.425000000001,-96.930441,32.992076000000004,,27768.5,Fiber Only,Healthcare,Healthcare,0.0
179,Opp-000129,Acct-000970,Closed - Lost,True,False,7/14/16,-1.0,,New Service,Dark Fiber - Metro,Bldg-153996,Dallas,5200 Harry Hines,Dallas,TX,75235,1639.72,Not on Zayo Network,,1.0,1.0,59322.705,23274.97,4610.0,6713.425000000001,-96.838048,32.812638,,52993.0,On-Net,Healthcare,Healthcare,0.0
180,Opp-000130,Acct-000973,5 - Accepted,True,True,7/14/16,120.0,,New Service,Dark Fiber - Metro,Bldg-012582,Atlanta,56 Marietta St NW,Atlanta,GA,30303,66.45,On Zayo Network,,18.0,18.0,33539.576,56393.21,3503.6,10716.391999999998,-84.391561,33.755431,,11993.5,On-Net,Colo/Hosting,IT Infrastructure,10749.0
181,Opp-000130,Acct-000973,5 - Accepted,True,True,7/14/16,120.0,,New Service,Dark Fiber - Metro,Bldg-108659,Atlanta,6 W Druid Hills Dr NE,Atlanta,GA,30329,24.34,On Zayo Network,,18.0,18.0,33539.576,56393.21,3503.6,10716.391999999998,-84.3401577,33.831659,,10730.2,Fiber Only,Colo/Hosting,IT Infrastructure,10749.0
182,Opp-000131,Acct-001127,5 - Accepted,True,True,7/14/16,36.0,,New Service,Ethernet,Bldg-030642,Denver,393 Inverness Pkwy,Englewood,CO,80112,96.73,On Zayo Network,,180.0,180.0,0.0,15230603.75,0.0,0.0,-104.86654820000001,39.5643596,,16752.85,On-Net,Non-Profit,Other Industry,1619.0
183,Opp-000131,Acct-001127,5 - Accepted,True,True,7/14/16,36.0,,New Service,Ethernet,Bldg-124444,Denver,3900 Grace Blvd,Littleton,CO,80126,1566.75,On Zayo Network,,180.0,180.0,0.0,15230603.75,0.0,0.0,-104.946279,39.538368,,59402.5,Restricted,Non-Profit,Other Industry,1619.0
184,Opp-000132,Acct-000424,5 - Accepted,True,True,7/14/16,24.0,,New Service,Ethernet,Bldg-090300,Dallas,3010 Waterview Pkwy,Richardson,TX,75080,436.62,On Zayo Network,,20.0,20.0,29129.1,1290800.0,922.0,1632.51,-96.752465,32.994824,,38197.2,Fiber Only,Finance - Other,Finance,6261.0
185,Opp-000133,Acct-000424,5 - Accepted,True,True,7/14/16,24.0,,New Service,Ethernet,Bldg-090300,Dallas,3010 Waterview Pkwy,Richardson,TX,75080,436.62,On Zayo Network,,20.0,20.0,29129.1,1290800.0,922.0,1632.51,-96.752465,32.994824,,38197.2,Fiber Only,Finance - Other,Finance,6261.0
186,Opp-000134,Acct-000346,5 - Accepted,True,True,7/14/16,12.0,,New Service,Wavelengths - Metro,Bldg-017035,Denver,910 15th St,Denver,CO,80202,96.49,On Zayo Network,,5.0,5.0,52315.37857142856,0.0,1924.3885714285716,2533.9142857142847,-104.995682,39.74556,,16742.05,On-Net,Reseller,Telecommunications,118933.0
187,Opp-000134,Acct-000346,5 - Accepted,True,True,7/14/16,12.0,,New Service,Wavelengths - Metro,Bldg-058803,Denver,11900 E Cornell Ave,Aurora,CO,80014,447.82,On Zayo Network,,5.0,5.0,52315.37857142856,0.0,1924.3885714285716,2533.9142857142847,-104.850001,39.660965999999995,,32551.9,On-Net,Reseller,Telecommunications,118933.0
188,Opp-000135,Acct-000768,2 - Best Case,False,False,7/14/16,36.0,,New Service,Ethernet,Bldg-016856,Atlanta,1033 Jefferson St NW,Atlanta,GA,30318,539.41,On Zayo Network,,0.0,0.0,42851.60333333333,0.0,1075.6666666666667,1283.1633333333334,-84.42146109999999,33.7775391,,22945.84,Fiber Only,Internet Content & Software,Media & Content,3640.0
189,Opp-000136,Acct-000768,2 - Best Case,False,False,7/14/16,36.0,,New Service,Ethernet,Bldg-016856,Atlanta,1033 Jefferson St NW,Atlanta,GA,30318,539.41,On Zayo Network,,0.0,0.0,42851.60333333333,0.0,1075.6666666666667,1283.1633333333334,-84.42146109999999,33.7775391,,22945.84,Fiber Only,Internet Content & Software,Media & Content,3640.0
190,Opp-000137,Acct-000094,Closed - Lost,True,False,7/14/16,-1.0,,New Service,Ethernet,Bldg-029881,Denver,9180 Commerce Center Cir,Littleton,CO,80129,2086.05,On Zayo Network,,963.0,963.0,17149.19629213483,287991260.21,608.623595505618,1499.393146067416,-105.03425790000001,39.5500631,,74981.5,On-Net,RLEC,Telecommunications,748.0
191,Opp-000138,Acct-000094,Closed - Lost,True,False,7/14/16,-1.0,,New Service,Ethernet,Bldg-029881,Denver,9180 Commerce Center Cir,Littleton,CO,80129,2086.05,On Zayo Network,,963.0,963.0,17149.19629213483,287991260.21,608.623595505618,1499.393146067416,-105.03425790000001,39.5500631,,74981.5,On-Net,RLEC,Telecommunications,748.0
192,Opp-000139,Acct-000039,5 - Accepted,True,True,7/14/16,60.0,,New Service,Dark Fiber - Metro,Bldg-015168,Denver,1850 Pearl St,Denver,CO,80203,103.07,On Zayo Network,,23800.0,23800.0,24238.821666666663,8993188.0,1021.6089285714285,1605.4089880952383,-104.97949960000001,39.745886,,17038.15,On-Net,Cable & Satellite,Media & Content,881860.0
193,Opp-000139,Acct-000039,5 - Accepted,True,True,7/14/16,60.0,,New Service,Dark Fiber - Metro,Bldg-137821,Denver,14810 Grasslands Dr,Englewood,CO,80112,312.63,On Zayo Network,,23800.0,23800.0,24238.821666666663,8993188.0,1021.6089285714285,1605.4089880952383,-104.82681,39.562332,,26468.35,Fiber Only,Cable & Satellite,Media & Content,881860.0
194,Opp-000140,Acct-000039,1 - Working,False,False,7/14/16,60.0,,New Service,Dark Fiber - Metro,Bldg-015168,Denver,1850 Pearl St,Denver,CO,80203,103.07,On Zayo Network,,23800.0,23800.0,24238.821666666663,8993188.0,1021.6089285714285,1605.4089880952383,-104.97949960000001,39.745886,,17038.15,On-Net,Cable & Satellite,Media & Content,881860.0
195,Opp-000140,Acct-000039,1 - Working,False,False,7/14/16,60.0,,New Service,Dark Fiber - Metro,Bldg-359027,Denver,6399 S Fiddlers Green Cir,Englewood,CO,80111,681.5,Not on Zayo Network,,23800.0,23800.0,24238.821666666663,8993188.0,1021.6089285714285,1605.4089880952383,-104.891084,39.600384000000005,,32845.0,Type 2,Cable & Satellite,Media & Content,881860.0
196,Opp-000141,Acct-000768,2 - Best Case,False,False,7/14/16,36.0,,New Service,Wavelengths - Long Haul,Bldg-016856,Atlanta,1033 Jefferson St NW,Atlanta,GA,30318,539.41,On Zayo Network,,0.0,0.0,42851.60333333333,0.0,1075.6666666666667,1283.1633333333334,-84.42146109999999,33.7775391,,22945.84,Fiber Only,Internet Content & Software,Media & Content,3640.0
197,Opp-000142,Acct-000768,2 - Best Case,False,False,7/14/16,36.0,,New Service,Wavelengths - Long Haul,Bldg-016856,Atlanta,1033 Jefferson St NW,Atlanta,GA,30318,539.41,On Zayo Network,,0.0,0.0,42851.60333333333,0.0,1075.6666666666667,1283.1633333333334,-84.42146109999999,33.7775391,,22945.84,Fiber Only,Internet Content & Software,Media & Content,3640.0
198,Opp-000143,Acct-000768,Closed - Lost,True,False,7/14/16,60.0,,New Service,Dark Fiber - Long Haul,Bldg-016856,Atlanta,1033 Jefferson St NW,Atlanta,GA,30318,539.41,On Zayo Network,,0.0,0.0,42851.60333333333,0.0,1075.6666666666667,1283.1633333333334,-84.42146109999999,33.7775391,,22945.84,Fiber Only,Internet Content & Software,Media & Content,3640.0
199,Opp-000144,Acct-000768,Closed - Lost,True,False,7/14/16,60.0,,New Service,Dark Fiber - Long Haul,Bldg-016856,Atlanta,1033 Jefferson St NW,Atlanta,GA,30318,539.41,On Zayo Network,,0.0,0.0,42851.60333333333,0.0,1075.6666666666667,1283.1633333333334,-84.42146109999999,33.7775391,,22945.84,Fiber Only,Internet Content & Software,Media & Content,3640.0
200,Opp-000145,Acct-000002,5 - Accepted,True,True,7/15/16,36.0,,New Service,Ethernet,Bldg-109245,Denver,1331 17th St,Denver,CO,80202,321.92,On Zayo Network,,43350.0,43350.0,19287.699023746703,25378360491.8,1353.7565963060686,2117.4700527704485,-104.996504,39.750939,,26886.4,Fiber Only,National Carrier/ISP,Telecommunications,3344939.0
201,Opp-000146,Acct-000004,5 - Accepted,True,True,7/15/16,252.0,,New Service,FTT - Dark Fiber,Bldg-015169,Denver,1425 Champa St,Denver,CO,80202,148.72,On Zayo Network,,30000.0,30000.0,27361.701212121217,29669960000.0,1322.2318181818182,1704.0633333333337,-104.996223,39.745214000000004,,19092.4,On-Net,Wireless,Telecommunications,3510947.0
202,Opp-000147,Acct-000004,5 - Accepted,True,True,7/15/16,252.0,,New Service,FTT - Dark Fiber,Bldg-015169,Denver,1425 Champa St,Denver,CO,80202,148.72,On Zayo Network,,30000.0,30000.0,27361.701212121217,29669960000.0,1322.2318181818182,1704.0633333333337,-104.996223,39.745214000000004,,19092.4,On-Net,Wireless,Telecommunications,3510947.0
203,Opp-000148,Acct-000004,5 - Accepted,True,True,7/15/16,252.0,,New Service,FTT - Dark Fiber,Bldg-015169,Denver,1425 Champa St,Denver,CO,80202,148.72,On Zayo Network,,30000.0,30000.0,27361.701212121217,29669960000.0,1322.2318181818182,1704.0633333333337,-104.996223,39.745214000000004,,19092.4,On-Net,Wireless,Telecommunications,3510947.0
204,Opp-000149,Acct-000004,5 - Accepted,True,True,7/15/16,252.0,,New Service,FTT - Dark Fiber,Bldg-015169,Denver,1425 Champa St,Denver,CO,80202,148.72,On Zayo Network,,30000.0,30000.0,27361.701212121217,29669960000.0,1322.2318181818182,1704.0633333333337,-104.996223,39.745214000000004,,19092.4,On-Net,Wireless,Telecommunications,3510947.0
205,Opp-000150,Acct-000004,5 - Accepted,True,True,7/15/16,252.0,,New Service,FTT - Dark Fiber,Bldg-015169,Denver,1425 Champa St,Denver,CO,80202,148.72,On Zayo Network,,30000.0,30000.0,27361.701212121217,29669960000.0,1322.2318181818182,1704.0633333333337,-104.996223,39.745214000000004,,19092.4,On-Net,Wireless,Telecommunications,3510947.0
206,Opp-000151,Acct-000255,Closed - Lost,True,False,7/15/16,36.0,,New Service,Wavelengths - Metro,Bldg-014640,Dallas,3180 Irving Blvd,Dallas,TX,75247,297.58,On Zayo Network,,0.0,0.0,20686.145384615385,0.0,1321.8288461538464,2135.2796153846157,-96.868566,32.807183,,29854.8,Restricted,Consulting / Other Professional Services,Professional Services,0.0
207,Opp-000151,Acct-000255,Closed - Lost,True,False,7/15/16,36.0,,New Service,Wavelengths - Metro,Bldg-014866,Dallas,1950 N Stemmons Fwy,Dallas,TX,75207,239.8,On Zayo Network,,0.0,0.0,20686.145384615385,0.0,1321.8288461538464,2135.2796153846157,-96.819612,32.800805,,26388.0,On-Net,Consulting / Other Professional Services,Professional Services,0.0
208,Opp-000152,Acct-000004,5 - Accepted,True,True,7/15/16,252.0,,New Service,FTT - Dark Fiber,Bldg-015169,Denver,1425 Champa St,Denver,CO,80202,148.72,On Zayo Network,,30000.0,30000.0,27361.701212121217,29669960000.0,1322.2318181818182,1704.0633333333337,-104.996223,39.745214000000004,,19092.4,On-Net,Wireless,Telecommunications,3510947.0
209,Opp-000153,Acct-000768,2 - Best Case,False,False,7/15/16,36.0,,New Service,Wavelengths - Long Haul,Bldg-016856,Atlanta,1033 Jefferson St NW,Atlanta,GA,30318,539.41,On Zayo Network,,0.0,0.0,42851.60333333333,0.0,1075.6666666666667,1283.1633333333334,-84.42146109999999,33.7775391,,22945.84,Fiber Only,Internet Content & Software,Media & Content,3640.0
210,Opp-000154,Acct-000777,3 - Committed,False,False,7/15/16,36.0,,New Service,Ethernet,Bldg-117101,Denver,7601 Technology Way,Denver,CO,80237,1213.05,Not on Zayo Network,,3500.0,3500.0,23067.396666666667,4708565488.0,922.0,2232.63,-104.9019738,39.6313432,,48791.5,Fiber Only,Non-Healthcare Insurance,Other Industry,28927.0
211,Opp-000155,Acct-000768,2 - Best Case,False,False,7/15/16,60.0,,New Service,Wavelengths - Long Haul,Bldg-016856,Atlanta,1033 Jefferson St NW,Atlanta,GA,30318,539.41,On Zayo Network,,0.0,0.0,42851.60333333333,0.0,1075.6666666666667,1283.1633333333334,-84.42146109999999,33.7775391,,22945.84,Fiber Only,Internet Content & Software,Media & Content,3640.0
212,Opp-000156,Acct-000995,Closed - Lost,True,False,7/15/16,36.0,,New Service,Ethernet,Bldg-115837,Dallas,17201 Waterview Pkwy,Dallas,TX,75252,9180.22,On Zayo Network,,1926.0,1926.0,41066.24,232661392.05,922.0,1668.3400000000001,-96.75721390000001,32.98445,,241505.5,Fiber Only,Internet Content & Software,Media & Content,62666.0
213,Opp-000156,Acct-000995,Closed - Lost,True,False,7/15/16,36.0,,New Service,Ethernet,Bldg-127057,Dallas,1649 W Frankford Rd,Carrollton,TX,75007,630.74,On Zayo Network,,1926.0,1926.0,41066.24,232661392.05,922.0,1668.3400000000001,-96.930441,32.992076000000004,,27768.5,Fiber Only,Internet Content & Software,Media & Content,62666.0
214,Opp-000157,Acct-000013,5 - Accepted,True,True,7/15/16,36.0,a0M6000000LaZNVEA3,Positive Re-Rate/Move/Change,Ethernet,Bldg-038523,Atlanta,375 Riverside Pkwy,Lithia Springs,GA,30122,274.12,On Zayo Network,,40000.0,40000.0,32009.30836697248,10779768901.96,1315.7018165137615,2418.917541284404,-84.581427,33.744265000000006,,18223.6,On-Net,National Carrier/ISP,Telecommunications,5117529.0
215,Opp-000158,Acct-000995,Closed - Lost,True,False,7/15/16,36.0,,New Service,IP Services,Bldg-115837,Dallas,17201 Waterview Pkwy,Dallas,TX,75252,9180.22,On Zayo Network,,1926.0,1926.0,41066.24,232661392.05,922.0,1668.3400000000001,-96.75721390000001,32.98445,,241505.5,Fiber Only,Internet Content & Software,Media & Content,62666.0
216,Opp-000159,Acct-000995,Closed - Lost,True,False,7/15/16,36.0,,New Service,Ethernet,Bldg-115837,Dallas,17201 Waterview Pkwy,Dallas,TX,75252,9180.22,On Zayo Network,,1926.0,1926.0,41066.24,232661392.05,922.0,1668.3400000000001,-96.75721390000001,32.98445,,241505.5,Fiber Only,Internet Content & Software,Media & Content,62666.0
217,Opp-000159,Acct-000995,Closed - Lost,True,False,7/15/16,36.0,,New Service,Ethernet,Bldg-127057,Dallas,1649 W Frankford Rd,Carrollton,TX,75007,630.74,On Zayo Network,,1926.0,1926.0,41066.24,232661392.05,922.0,1668.3400000000001,-96.930441,32.992076000000004,,27768.5,Fiber Only,Internet Content & Software,Media & Content,62666.0
218,Opp-000160,Acct-000153,1 - Working,False,False,7/15/16,36.0,,New Service,Wavelengths - Long Haul,Bldg-014866,Dallas,1950 N Stemmons Fwy,Dallas,TX,75207,239.8,On Zayo Network,,48.0,50.0,20618.964222222225,0.0,988.5888888888888,972.1815555555555,-96.819612,32.800805,,26388.0,On-Net,Regional Carrier/ISP,Telecommunications,27152.0
219,Opp-000161,Acct-000953,1 - Working,False,False,7/15/16,60.0,,New Service,Wavelengths - Long Haul,Bldg-117716,Dallas,6653 Pinecrest Dr,Plano,TX,75024,535.09,On Zayo Network,,10.0,10.0,24813.15,1198600.0,922.0,937.45,-96.81099300000001,33.064858,,25377.25,Fiber Only,Regional Carrier/ISP,Telecommunications,25501.0
220,Opp-000162,Acct-000002,1 - Working,False,False,7/15/16,-1.0,,New Service,Wavelengths - Long Haul,Bldg-108671,Denver,9706 E Easter Ave,Englewood,CO,80112,109.6,On Zayo Network,,43350.0,43350.0,19287.699023746703,25378360491.8,1353.7565963060686,2117.4700527704485,-104.876543,39.587387299999996,,17332.0,Fiber Only,National Carrier/ISP,Telecommunications,3344939.0
221,Opp-000163,Acct-001128,1 - Working,False,False,7/15/16,60.0,,New Service,Ethernet,Bldg-480416,Denver,6880 Broadway,Denver,CO,80221,2597.61,Not on Zayo Network,,0.0,0.0,0.0,0.0,0.0,0.0,-104.98743300000001,39.820293,,90328.3,Fiber Only,Healthcare,Healthcare,121100.0
222,Opp-000164,Acct-000004,5 - Accepted,True,True,7/15/16,252.0,,New Service,FTT - Dark Fiber,Bldg-015169,Denver,1425 Champa St,Denver,CO,80202,148.72,On Zayo Network,,30000.0,30000.0,27361.701212121217,29669960000.0,1322.2318181818182,1704.0633333333337,-104.996223,39.745214000000004,,19092.4,On-Net,Wireless,Telecommunications,3510947.0
223,Opp-000165,Acct-000004,5 - Accepted,True,True,7/15/16,252.0,,New Service,FTT - Dark Fiber,Bldg-015169,Denver,1425 Champa St,Denver,CO,80202,148.72,On Zayo Network,,30000.0,30000.0,27361.701212121217,29669960000.0,1322.2318181818182,1704.0633333333337,-104.996223,39.745214000000004,,19092.4,On-Net,Wireless,Telecommunications,3510947.0
224,Opp-000166,Acct-000004,5 - Accepted,True,True,7/15/16,252.0,,New Service,FTT - Dark Fiber,Bldg-015169,Denver,1425 Champa St,Denver,CO,80202,148.72,On Zayo Network,,30000.0,30000.0,27361.701212121217,29669960000.0,1322.2318181818182,1704.0633333333337,-104.996223,39.745214000000004,,19092.4,On-Net,Wireless,Telecommunications,3510947.0
225,Opp-000167,Acct-000255,Closed - Lost,True,False,7/15/16,36.0,,New Service,Wavelengths - Long Haul,Bldg-014640,Dallas,3180 Irving Blvd,Dallas,TX,75247,297.58,On Zayo Network,,0.0,0.0,20686.145384615385,0.0,1321.8288461538464,2135.2796153846157,-96.868566,32.807183,,29854.8,Restricted,Consulting / Other Professional Services,Professional Services,0.0
226,Opp-000168,Acct-000255,Closed - Lost,True,False,7/15/16,36.0,,New Service,Wavelengths - Long Haul,Bldg-014640,Dallas,3180 Irving Blvd,Dallas,TX,75247,297.58,On Zayo Network,,0.0,0.0,20686.145384615385,0.0,1321.8288461538464,2135.2796153846157,-96.868566,32.807183,,29854.8,Restricted,Consulting / Other Professional Services,Professional Services,0.0
227,Opp-000169,Acct-000255,Closed - Lost,True,False,7/15/16,36.0,,New Service,Wavelengths - Long Haul,Bldg-014640,Dallas,3180 Irving Blvd,Dallas,TX,75247,297.58,On Zayo Network,,0.0,0.0,20686.145384615385,0.0,1321.8288461538464,2135.2796153846157,-96.868566,32.807183,,29854.8,Restricted,Consulting / Other Professional Services,Professional Services,0.0
228,Opp-000170,Acct-000229,1 - Working,False,False,7/16/16,60.0,a0M6000000HpprvEAB,Negative Re-Rate/Move/Change,Wavelengths - Long Haul,Bldg-014864,Atlanta,250 Williams St NW,Atlanta,GA,30303,280.06,On Zayo Network,,0.0,0.0,28447.559999999998,0.0,1890.1000000000001,6267.388571428572,-84.3911416,33.7616219,,18401.8,On-Net,Healthcare - Other,Healthcare,35386.0
229,Opp-000171,Acct-000963,1 - Working,False,False,7/16/16,-1.0,,New Service,Wavelengths - Long Haul,Bldg-018754,Atlanta,180 Peachtree St NW,Atlanta,GA,30303,1055.22,On Zayo Network,,6400.0,6400.0,10017.0,3685098466.0,2074.5,5920.99,-84.38769,33.758884,,35325.28,On-Net,Wireless,Telecommunications,175454.0
230,Opp-000172,Acct-000963,1 - Working,False,False,7/16/16,60.0,,New Service,Wavelengths - Long Haul,Bldg-018754,Atlanta,180 Peachtree St NW,Atlanta,GA,30303,1055.22,On Zayo Network,,6400.0,6400.0,10017.0,3685098466.0,2074.5,5920.99,-84.38769,33.758884,,35325.28,On-Net,Wireless,Telecommunications,175454.0
231,Opp-000173,Acct-000102,5 - Accepted,True,True,7/16/16,84.0,,New Service,Dark Fiber - Metro,Bldg-115837,Dallas,17201 Waterview Pkwy,Dallas,TX,75252,9180.22,On Zayo Network,,580.0,580.0,29340.842222222225,305089800.0,1668.137037037037,2229.7313580246914,-96.75721390000001,32.98445,,241505.5,Fiber Only,Colo/Hosting,IT Infrastructure,176954.0
232,Opp-000173,Acct-000102,5 - Accepted,True,True,7/16/16,84.0,,New Service,Dark Fiber - Metro,Bldg-014866,Dallas,1950 N Stemmons Fwy,Dallas,TX,75207,239.8,On Zayo Network,,580.0,580.0,29340.842222222225,305089800.0,1668.137037037037,2229.7313580246914,-96.819612,32.800805,,26388.0,On-Net,Colo/Hosting,IT Infrastructure,176954.0
233,Opp-000173,Acct-000102,5 - Accepted,True,True,7/16/16,84.0,,New Service,Dark Fiber - Metro,Bldg-127057,Dallas,1649 W Frankford Rd,Carrollton,TX,75007,630.74,On Zayo Network,,580.0,580.0,29340.842222222225,305089800.0,1668.137037037037,2229.7313580246914,-96.930441,32.992076000000004,,27768.5,Fiber Only,Colo/Hosting,IT Infrastructure,176954.0
234,Opp-000174,Acct-000070,5 - Accepted,True,True,7/17/16,48.0,,New Service,Live Video,Bldg-038071,Atlanta,1100 White St SW,Atlanta,GA,30310,297.34,On Zayo Network,,865.0,865.0,41564.3195,91596133.33,1774.85,2625.3500000000004,-84.4256845,33.733839200000006,,18920.2,Fiber Only,Media,Media & Content,504108.0
235,Opp-000175,Acct-001129,2 - Best Case,False,False,7/17/16,36.0,a0M6000000Hsg0rEAB,Positive Re-Rate/Move/Change,IP Services,Bldg-118226,Dallas,301 N Crowdus St,Dallas,TX,75226,224.3,On Zayo Network,,300.0,300.0,0.0,28881964.4,0.0,0.0,-96.78458,32.785540000000005,,25458.0,Fiber Only,Media,Media & Content,11549.0
236,Opp-000176,Acct-001129,Closed - Lost,True,False,7/17/16,36.0,a0M6000000IKvXpEAL,Positive Re-Rate/Move/Change,Ethernet,Bldg-014866,Dallas,1950 N Stemmons Fwy,Dallas,TX,75207,239.8,On Zayo Network,,300.0,300.0,0.0,28881964.4,0.0,0.0,-96.819612,32.800805,,26388.0,On-Net,Media,Media & Content,11549.0
237,Opp-000176,Acct-001129,Closed - Lost,True,False,7/17/16,36.0,a0M6000000IKvXpEAL,Positive Re-Rate/Move/Change,Ethernet,Bldg-118226,Dallas,301 N Crowdus St,Dallas,TX,75226,224.3,On Zayo Network,,300.0,300.0,0.0,28881964.4,0.0,0.0,-96.78458,32.785540000000005,,25458.0,Fiber Only,Media,Media & Content,11549.0
238,Opp-000177,Acct-000303,5 - Accepted,True,True,7/18/16,12.0,,New Service,Ethernet,Bldg-137677,Dallas,6431 Longhorn Dr,Irving,TX,75063,338.03,On Zayo Network,,170.0,170.0,22413.337173913045,33857909.89,1443.1304347826087,2401.5180434782606,-96.9829687,32.8970767,,32281.8,Fiber Only,PTT,Telecommunications,731810.0
239,Opp-000178,Acct-000533,Closed - Lost,True,False,7/18/16,36.0,,New Service,Ethernet,Bldg-127057,Dallas,1649 W Frankford Rd,Carrollton,TX,75007,630.74,On Zayo Network,,175.0,175.0,33448.065,0.0,1777.7087500000002,2762.19125,-96.930441,32.992076000000004,,27768.5,Fiber Only,Reseller,Telecommunications,22482.0
240,Opp-000179,Acct-000977,Closed - Lost,True,False,7/18/16,36.0,,New Service,IP Services,Bldg-061779,Atlanta,280 Interstate North Cir SE,Atlanta,GA,30339,269.16,On Zayo Network,,0.0,0.0,12188.76,0.0,922.0,699.4549999999999,-84.461113,33.8978637,,18074.8,Fiber Only,Consulting / Other Professional Services,Professional Services,0.0
241,Opp-000180,Acct-000102,Closed - Lost,True,False,7/18/16,-1.0,,New Service,Dark Fiber - Metro,Bldg-115837,Dallas,17201 Waterview Pkwy,Dallas,TX,75252,9180.22,On Zayo Network,,580.0,580.0,29340.842222222225,305089800.0,1668.137037037037,2229.7313580246914,-96.75721390000001,32.98445,,241505.5,Fiber Only,Colo/Hosting,IT Infrastructure,176954.0
242,Opp-000180,Acct-000102,Closed - Lost,True,False,7/18/16,-1.0,,New Service,Dark Fiber - Metro,Bldg-127057,Dallas,1649 W Frankford Rd,Carrollton,TX,75007,630.74,On Zayo Network,,580.0,580.0,29340.842222222225,305089800.0,1668.137037037037,2229.7313580246914,-96.930441,32.992076000000004,,27768.5,Fiber Only,Colo/Hosting,IT Infrastructure,176954.0
243,Opp-000181,Acct-000002,5 - Accepted,True,True,7/18/16,12.0,,New Service,Ethernet,Bldg-127057,Dallas,1649 W Frankford Rd,Carrollton,TX,75007,630.74,On Zayo Network,,43350.0,43350.0,19287.699023746703,25378360491.8,1353.7565963060686,2117.4700527704485,-96.930441,32.992076000000004,,27768.5,Fiber Only,National Carrier/ISP,Telecommunications,3344939.0
244,Opp-000182,Acct-000043,Closed - Lost,True,False,7/18/16,36.0,,New Service,Ethernet,Bldg-137677,Dallas,6431 Longhorn Dr,Irving,TX,75063,338.03,On Zayo Network,,790.0,790.0,29219.938542141233,180692122.6,1399.8028246013669,2331.1037129840543,-96.9829687,32.8970767,,32281.8,Fiber Only,Colo/Hosting,IT Infrastructure,109515.0
245,Opp-000183,Acct-000043,Closed - Lost,True,False,7/18/16,36.0,,New Service,Wavelengths - Long Haul,Bldg-137677,Dallas,6431 Longhorn Dr,Irving,TX,75063,338.03,On Zayo Network,,790.0,790.0,29219.938542141233,180692122.6,1399.8028246013669,2331.1037129840543,-96.9829687,32.8970767,,32281.8,Fiber Only,Colo/Hosting,IT Infrastructure,109515.0
246,Opp-000184,Acct-000019,1 - Working,False,False,7/18/16,36.0,,New Service,Ethernet,Bldg-119885,Dallas,5080 Spectrum Dr,Addison,TX,75001,419.06,On Zayo Network,,0.0,0.0,53023.202217194565,0.0,13306.329570135746,2934.3505882352943,-96.82361,32.95474,,37143.6,Fiber Only,National Carrier/ISP,Telecommunications,22141.48
247,Opp-000185,Acct-000009,1 - Working,False,False,7/18/16,-1.0,,New Service,Ethernet,Bldg-110365,Denver,2975 Walnut St,Denver,CO,80205,140.49,On Zayo Network,,12626.0,12326.0,22584.21958333333,5374799000.0,1109.8575,2183.6229000000003,-104.982052,39.762842,,18722.05,Restricted,National Carrier/ISP,Telecommunications,1915889.0
248,Opp-000185,Acct-000009,1 - Working,False,False,7/18/16,-1.0,,New Service,Ethernet,Bldg-438361,Denver,6800 E 50th Ave,Commerce City,CO,80022,1295.82,Not on Zayo Network,,12626.0,12326.0,22584.21958333333,5374799000.0,1109.8575,2183.6229000000003,-104.90975759999999,39.787214299999995,,51274.6,Fiber Only,National Carrier/ISP,Telecommunications,1915889.0
249,Opp-000186,Acct-000332,1 - Working,False,False,7/18/16,-1.0,,New Service,Wavelengths - Long Haul,Bldg-027193,Atlanta,55 Marietta St NW,Atlanta,GA,30303,110.85,On Zayo Network,,1.0,1.0,129664.68666666665,717426.64,3380.6666666666665,7160.856666666667,-84.3908998,33.7559351,,13325.5,On-Net,Reseller,Telecommunications,10568.0
250,Opp-000187,Acct-000009,1 - Working,False,False,7/18/16,36.0,,New Service,Wavelengths - Metro,Bldg-014866,Dallas,1950 N Stemmons Fwy,Dallas,TX,75207,239.8,On Zayo Network,,12626.0,12326.0,22584.21958333333,5374799000.0,1109.8575,2183.6229000000003,-96.819612,32.800805,,26388.0,On-Net,National Carrier/ISP,Telecommunications,1915889.0
251,Opp-000187,Acct-000009,1 - Working,False,False,7/18/16,36.0,,New Service,Wavelengths - Metro,Bldg-015500,Dallas,2300 W Plano Pkwy - Bldg C,Plano,TX,75075,657.46,On Zayo Network,,12626.0,12326.0,22584.21958333333,5374799000.0,1109.8575,2183.6229000000003,-96.73684300000001,33.005724,,28436.5,On-Net,National Carrier/ISP,Telecommunications,1915889.0
252,Opp-000188,Acct-000002,5 - Accepted,True,True,7/18/16,36.0,,New Service,Ethernet,Bldg-038587,Dallas,4100 Bryan St,Dallas,TX,75204,220.45,On Zayo Network,,43350.0,43350.0,19287.699023746703,25378360491.8,1353.7565963060686,2117.4700527704485,-96.7800473,32.7974974,,25227.0,Fiber Only,National Carrier/ISP,Telecommunications,3344939.0
253,Opp-000189,Acct-000976,Closed - Lost,True,False,7/18/16,36.0,,New Service,IP Services,Bldg-111681,Denver,6900 S Peoria St,Centennial,CO,80112,244.81,On Zayo Network,,0.0,0.0,14775.135,0.0,1046.47,727.115,-104.8470746,39.591309100000004,,23416.45,Fiber Only,Cloud Service Provider,IT Infrastructure,100.0
254,Opp-000190,Acct-000002,5 - Accepted,True,True,7/18/16,36.0,,New Service,Ethernet,Bldg-038587,Dallas,4100 Bryan St,Dallas,TX,75204,220.45,On Zayo Network,,43350.0,43350.0,19287.699023746703,25378360491.8,1353.7565963060686,2117.4700527704485,-96.7800473,32.7974974,,25227.0,Fiber Only,National Carrier/ISP,Telecommunications,3344939.0
255,Opp-000191,Acct-000091,5 - Accepted,True,True,7/18/16,12.0,a0M6000000CweFZEAZ,Positive Re-Rate/Move/Change,IP Services,Bldg-012582,Atlanta,56 Marietta St NW,Atlanta,GA,30303,66.45,On Zayo Network,,2.0,2.0,37696.212093023256,576443.62,1072.093023255814,2528.184651162791,-84.391561,33.755431,,11993.5,On-Net,Regional Carrier/ISP,Telecommunications,810174.0
256,Opp-000191,Acct-000091,5 - Accepted,True,True,7/18/16,12.0,a0M6000000CweFZEAZ,Positive Re-Rate/Move/Change,IP Services,Bldg-065056,Dallas,2323 Bryan St,Dallas,TX,75201,64.67,On Zayo Network,,2.0,2.0,37696.212093023256,576443.62,1072.093023255814,2528.184651162791,-96.79411800000001,32.787255,,15880.2,Fiber Only,Regional Carrier/ISP,Telecommunications,810174.0
257,Opp-000192,Acct-001130,Closed - Lost,True,False,7/19/16,36.0,a0M6000000IJu71EAD,Retention Opportunity,Wavelengths - Long Haul,Bldg-014866,Dallas,1950 N Stemmons Fwy,Dallas,TX,75207,239.8,On Zayo Network,,0.0,0.0,0.0,0.0,0.0,0.0,-96.819612,32.800805,,26388.0,On-Net,Commercial Systems Integrator,Professional Services,6757.39
258,Opp-000193,Acct-000004,4 - Closed,True,True,7/19/16,-1.0,,New Service,SONET,Bldg-108725,Denver,3443 Blake St,Denver,CO,80205,39.56,On Zayo Network,,30000.0,30000.0,27361.701212121217,29669960000.0,1322.2318181818182,1704.0633333333337,-104.9770117,39.7682211,,14180.2,On-Net,Wireless,Telecommunications,3510947.0
259,Opp-000194,Acct-001031,Closed - Lost,True,False,7/19/16,120.0,,New Service,Ethernet,Bldg-390032,Dallas,200 Taylor St,Fort Worth,TX,76102,309.61,Not on Zayo Network,,0.0,0.0,29714.413,0.0,1106.4,2613.547,-97.3354118,32.7548896,,30576.6,Fiber Only,State/Local Government,Government,0.0
260,Opp-000195,Acct-000102,Closed - Lost,True,False,7/19/16,120.0,,New Service,Ethernet,Bldg-127057,Dallas,1649 W Frankford Rd,Carrollton,TX,75007,630.74,On Zayo Network,,580.0,580.0,29340.842222222225,305089800.0,1668.137037037037,2229.7313580246914,-96.930441,32.992076000000004,,27768.5,Fiber Only,Colo/Hosting,IT Infrastructure,176954.0
261,Opp-000196,Acct-000002,5 - Accepted,True,True,7/19/16,12.0,,New Service,Ethernet,Bldg-038587,Dallas,4100 Bryan St,Dallas,TX,75204,220.45,On Zayo Network,,43350.0,43350.0,19287.699023746703,25378360491.8,1353.7565963060686,2117.4700527704485,-96.7800473,32.7974974,,25227.0,Fiber Only,National Carrier/ISP,Telecommunications,3344939.0
262,Opp-000197,Acct-000053,1 - Working,False,False,7/19/16,-1.0,,New Service,Dark Fiber - Metro,Bldg-038101,Atlanta,1500 Southpoint Dr,Forest Park,GA,30297,178.15,On Zayo Network,,43000.0,43000.0,52307.608214285705,16503800000.0,2627.9993506493506,2612.1782467532466,-84.383297,33.633246,,15344.5,On-Net,National Carrier/ISP,Telecommunications,2950069.0
263,Opp-000197,Acct-000053,1 - Working,False,False,7/19/16,-1.0,,New Service,Dark Fiber - Metro,Bldg-482640,Atlanta,3000 Flowers Rd S,Atlanta,GA,30341,-1.0,Not on Zayo Network,,43000.0,43000.0,52307.608214285705,16503800000.0,2627.9993506493506,2612.1782467532466,-84.268569,33.873569,,10000.0,Fiber Only,National Carrier/ISP,Telecommunications,2950069.0
264,Opp-000198,Acct-000028,Closed - Lost,True,False,7/19/16,12.0,,New Service,IP Services,Bldg-014866,Dallas,1950 N Stemmons Fwy,Dallas,TX,75207,239.8,On Zayo Network,,0.0,0.0,103035.50666666665,0.0,7376.0,2003.9577777777777,-96.819612,32.800805,,26388.0,On-Net,Colo/Hosting,IT Infrastructure,10000.0
265,Opp-000199,Acct-000002,5 - Accepted,True,True,7/19/16,36.0,,New Service,Ethernet,Bldg-127057,Dallas,1649 W Frankford Rd,Carrollton,TX,75007,630.74,On Zayo Network,,43350.0,43350.0,19287.699023746703,25378360491.8,1353.7565963060686,2117.4700527704485,-96.930441,32.992076000000004,,27768.5,Fiber Only,National Carrier/ISP,Telecommunications,3344939.0
266,Opp-000200,Acct-000280,5 - Accepted,True,True,7/19/16,24.0,a0M6000000Ih6ZTEAZ,Positive Re-Rate/Move/Change,Wavelengths - Long Haul,Bldg-109955,Dallas,3000 Irving Blvd,Dallas,TX,75247,117.61,On Zayo Network,,43.0,125.0,32733.268125000002,11828525.17,1613.5,2827.19,-96.85716500000001,32.8084087,,19056.6,On-Net,Media,Media & Content,40694.0
267,Opp-000201,Acct-000101,Closed - Lost,True,False,7/19/16,36.0,,New Service,IP Services,Bldg-111419,Atlanta,1 Monroe Pl NE,Atlanta,GA,30324,606.88,On Zayo Network,,12800.0,12800.0,48189.48857142858,2812971290.0,1712.2857142857142,1581.0071428571428,-84.368817,33.808589000000005,,24565.12,Fiber Only,Media,Media & Content,41174.0
268,Opp-000202,Acct-000035,1 - Working,False,False,7/19/16,36.0,,New Service,Ethernet,Bldg-014866,Dallas,1950 N Stemmons Fwy,Dallas,TX,75207,239.8,On Zayo Network,,0.0,0.0,30888.800999999996,0.0,915.9997,1540.1597,-96.819612,32.800805,,26388.0,On-Net,National Carrier/ISP,Telecommunications,1700.0
269,Opp-000203,Acct-000050,3 - Committed,False,False,7/19/16,12.0,,New Service,Ethernet,Bldg-014866,Dallas,1950 N Stemmons Fwy,Dallas,TX,75207,239.8,On Zayo Network,,0.0,0.0,50112.96825,0.0,2625.3950000000004,3574.7877500000004,-96.819612,32.800805,,26388.0,On-Net,Media,Media & Content,0.0
270,Opp-000203,Acct-000050,3 - Committed,False,False,7/19/16,12.0,,New Service,Ethernet,Bldg-065056,Dallas,2323 Bryan St,Dallas,TX,75201,64.67,On Zayo Network,,0.0,0.0,50112.96825,0.0,2625.3950000000004,3574.7877500000004,-96.79411800000001,32.787255,,15880.2,Fiber Only,Media,Media & Content,0.0
271,Opp-000204,Acct-000019,3 - Committed,False,False,7/19/16,1.0,,New Service,Ethernet,Bldg-014866,Dallas,1950 N Stemmons Fwy,Dallas,TX,75207,239.8,On Zayo Network,,0.0,0.0,53023.202217194565,0.0,13306.329570135746,2934.3505882352943,-96.819612,32.800805,,26388.0,On-Net,National Carrier/ISP,Telecommunications,22141.48
272,Opp-000204,Acct-000019,3 - Committed,False,False,7/19/16,1.0,,New Service,Ethernet,Bldg-065056,Dallas,2323 Bryan St,Dallas,TX,75201,64.67,On Zayo Network,,0.0,0.0,53023.202217194565,0.0,13306.329570135746,2934.3505882352943,-96.79411800000001,32.787255,,15880.2,Fiber Only,National Carrier/ISP,Telecommunications,22141.48
273,Opp-000205,Acct-000404,5 - Accepted,True,True,7/20/16,24.0,,New Service,Ethernet,Bldg-012582,Atlanta,56 Marietta St NW,Atlanta,GA,30303,66.45,On Zayo Network,,0.0,0.0,21269.179999999997,0.0,1182.5652173913043,2754.259565217392,-84.391561,33.755431,,11993.5,On-Net,Regional Carrier/ISP,Telecommunications,1128.46
274,Opp-000205,Acct-000404,5 - Accepted,True,True,7/20/16,24.0,,New Service,Ethernet,Bldg-060347,Atlanta,125 Townpark Dr NW,Kennesaw,GA,30144,1003.81,On Zayo Network,,0.0,0.0,21269.179999999997,0.0,1182.5652173913043,2754.259565217392,-84.56707929999999,34.0399099,,34091.44,On-Net,Regional Carrier/ISP,Telecommunications,1128.46
275,Opp-000206,,Closed - Lost,True,False,7/20/16,-1.0,,New Service,IP Services,Bldg-016855,Atlanta,300 Satellite Blvd NW,Suwanee,GA,30024,374.79,On Zayo Network,,0.0,0.0,0.0,0.0,0.0,0.0,-84.0608807,34.035421299999996,,21243.7,On-Net,unknown,unknown,0.0
276,Opp-000206,,Closed - Lost,True,False,7/20/16,-1.0,,New Service,IP Services,Bldg-080551,Atlanta,50 Hurt Plz SE,Atlanta,GA,30303,91.64,On Zayo Network,,0.0,0.0,0.0,0.0,0.0,0.0,-84.387292,33.754243,,12749.2,Fiber Only,unknown,unknown,0.0
277,Opp-000206,,Closed - Lost,True,False,7/20/16,-1.0,,New Service,IP Services,Bldg-086574,Atlanta,191 Peachtree St NE,Atlanta,GA,30303,925.32,On Zayo Network,,0.0,0.0,0.0,0.0,0.0,0.0,-84.3872591,33.7590381,,32207.68,Fiber Only,unknown,unknown,0.0
278,Opp-000206,,Closed - Lost,True,False,7/20/16,-1.0,,New Service,IP Services,Bldg-111368,Atlanta,750 Great Southwest Pkwy SW,Atlanta,GA,30336,1791.9,Not on Zayo Network,,0.0,0.0,0.0,0.0,0.0,0.0,-84.57096,33.739111,,53005.6,Fiber Only,unknown,unknown,0.0
279,Opp-000206,,Closed - Lost,True,False,7/20/16,-1.0,,New Service,IP Services,Bldg-109939,Atlanta,1247 Donald Lee Hollowell Pkwy NW,Atlanta,GA,30318,2432.14,Not on Zayo Network,,0.0,0.0,0.0,0.0,0.0,0.0,-84.4286427,33.771911100000004,,68371.36,Fiber Only,unknown,unknown,0.0
280,Opp-000206,,Closed - Lost,True,False,7/20/16,-1.0,,New Service,IP Services,Bldg-109941,Atlanta,1595 Cleveland Ave,Atlanta,GA,30344,285.28,Not on Zayo Network,,0.0,0.0,0.0,0.0,0.0,0.0,-84.44124559999999,33.6795641,,18558.4,Fiber Only,unknown,unknown,0.0
281,Opp-000206,,Closed - Lost,True,False,7/20/16,-1.0,,New Service,IP Services,Bldg-111371,Atlanta,1575 Northside Dr NW - Bldg 200,Atlanta,GA,30318,574.9,On Zayo Network,,0.0,0.0,0.0,0.0,0.0,0.0,-84.4059585,33.799552,,23797.6,Fiber Only,unknown,unknown,0.0
282,Opp-000206,,Closed - Lost,True,False,7/20/16,-1.0,,New Service,IP Services,Bldg-109947,Atlanta,2800 Springdale Rd SW,Atlanta,GA,30315,4748.15,Not on Zayo Network,,0.0,0.0,0.0,0.0,0.0,0.0,-84.414271,33.678894,,123955.6,Fiber Only,unknown,unknown,0.0
283,Opp-000206,,Closed - Lost,True,False,7/20/16,-1.0,,New Service,IP Services,Bldg-109942,Atlanta,2695 Buford Hwy NE,Atlanta,GA,30324,21.78,Not on Zayo Network,,0.0,0.0,0.0,0.0,0.0,0.0,-84.34644329999999,33.8278743,,10653.4,Fiber Only,unknown,unknown,0.0
284,Opp-000206,,Closed - Lost,True,False,7/20/16,-1.0,,New Service,IP Services,Bldg-111372,Atlanta,745 Memorial Dr SE,Atlanta,GA,30316,2704.99,Not on Zayo Network,,0.0,0.0,0.0,0.0,0.0,0.0,-84.36304190000001,33.746021,,74919.76,Fiber Only,unknown,unknown,0.0
285,Opp-000206,,Closed - Lost,True,False,7/20/16,-1.0,,New Service,IP Services,Bldg-109948,Atlanta,341 Ponce De Leon Ave NE,Atlanta,GA,30308,898.91,Not on Zayo Network,,0.0,0.0,0.0,0.0,0.0,0.0,-84.375636,33.7722934,,31573.84,Fiber Only,unknown,unknown,0.0
286,Opp-000206,,Closed - Lost,True,False,7/20/16,-1.0,,New Service,IP Services,Bldg-109943,Atlanta,3807 Clairmont Rd,Atlanta,GA,30341,7178.94,Not on Zayo Network,,0.0,0.0,0.0,0.0,0.0,0.0,-84.309436,33.872696000000005,,182294.56,Fiber Only,unknown,unknown,0.0
287,Opp-000206,,Closed - Lost,True,False,7/20/16,-1.0,,New Service,IP Services,Bldg-109949,Atlanta,1863 Memorial Dr SE,Atlanta,GA,30317,9925.91,Not on Zayo Network,,0.0,0.0,0.0,0.0,0.0,0.0,-84.32642,33.74739,,248221.84,Fiber Only,unknown,unknown,0.0
288,Opp-000206,,Closed - Lost,True,False,7/20/16,-1.0,,New Service,IP Services,Bldg-109944,Atlanta,7741 Roswell Rd,Atlanta,GA,30350,362.8,Not on Zayo Network,,0.0,0.0,0.0,0.0,0.0,0.0,-84.362538,33.964608,,20884.0,Fiber Only,unknown,unknown,0.0
289,Opp-000206,,Closed - Lost,True,False,7/20/16,-1.0,,New Service,IP Services,Bldg-111374,Atlanta,56 Jesse Hill Jr Dr SE,Atlanta,GA,30303,945.38,Not on Zayo Network,,0.0,0.0,0.0,0.0,0.0,0.0,-84.381651,33.7530594,,32689.12,Fiber Only,unknown,unknown,0.0
290,Opp-000206,,Closed - Lost,True,False,7/20/16,-1.0,,New Service,IP Services,Bldg-109945,Atlanta,2600 Martin Luther King Jr Dr SW,Atlanta,GA,30311,224.32,Not on Zayo Network,,0.0,0.0,0.0,0.0,0.0,0.0,-84.472612,33.753053,,16729.6,Fiber Only,unknown,unknown,0.0
291,Opp-000206,,Closed - Lost,True,False,7/20/16,-1.0,,New Service,IP Services,Bldg-482722,Atlanta,2284 Marietta Rd NW,Atlanta,GA,30318,-1.0,Not on Zayo Network,,0.0,0.0,0.0,0.0,0.0,0.0,-84.460909,33.817536100000005,,10000.0,Fiber Only,unknown,unknown,0.0
292,Opp-000206,,Closed - Lost,True,False,7/20/16,-1.0,,New Service,IP Services,Bldg-482718,Atlanta,262 Estoria St SE,Atlanta,GA,30316,2746.67,Not on Zayo Network,,0.0,0.0,0.0,0.0,0.0,0.0,-84.36284930000001,33.7473695,,75920.08,Fiber Only,unknown,unknown,0.0
293,Opp-000206,,Closed - Lost,True,False,7/20/16,-1.0,,New Service,IP Services,Bldg-482720,Atlanta,263 Decatur St SE,Atlanta,GA,30312,1993.85,Not on Zayo Network,,0.0,0.0,0.0,0.0,0.0,0.0,-84.3816064,33.7494776,,57852.4,Fiber Only,unknown,unknown,0.0
294,Opp-000206,,Closed - Lost,True,False,7/20/16,-1.0,,New Service,IP Services,Bldg-199544,Atlanta,10 Park Pl S,Atlanta,GA,30303,90.31,Not on Zayo Network,,0.0,0.0,0.0,0.0,0.0,0.0,-84.388432,33.754051000000004,,12709.3,Fiber Only,unknown,unknown,0.0
295,Opp-000207,Acct-000972,1 - Working,False,False,7/19/16,36.0,,New Service,Ethernet,Bldg-111681,Denver,6900 S Peoria St,Centennial,CO,80112,244.81,On Zayo Network,,0.0,0.0,55850.27,0.0,2087.4080000000004,2585.496,-104.8470746,39.591309100000004,,23416.45,Fiber Only,Healthcare - Other,Healthcare,3976.06
296,Opp-000207,Acct-000972,1 - Working,False,False,7/19/16,36.0,,New Service,Ethernet,Bldg-231763,Denver,6116 E Warren Ave,Denver,CO,80222,344.99,On Zayo Network,,0.0,0.0,55850.27,0.0,2087.4080000000004,2585.496,-104.91691499999999,39.677403000000005,,27924.55,On-Net,Healthcare - Other,Healthcare,3976.06
297,Opp-000208,Acct-000034,5 - Accepted,True,True,7/20/16,36.0,,New Service,Ethernet,Bldg-127057,Dallas,1649 W Frankford Rd,Carrollton,TX,75007,630.74,On Zayo Network,,0.0,0.0,22169.201952,0.0,1248.8204,1900.7950399999997,-96.930441,32.992076000000004,,27768.5,Fiber Only,National Carrier/ISP,Telecommunications,1541759.0
298,Opp-000209,Acct-000224,Closed - Lost,True,False,7/20/16,-1.0,,New Service,Wavelengths - Long Haul,Bldg-017035,Denver,910 15th St,Denver,CO,80202,96.49,On Zayo Network,,0.0,0.0,38596.08864583333,0.0,1811.3458333333335,2845.5698958333337,-104.995682,39.74556,,16742.05,On-Net,Regional Carrier/ISP,Telecommunications,468014.08
299,Opp-000210,Acct-000011,5 - Accepted,True,True,7/20/16,24.0,,New Service,Wavelengths - Long Haul,Bldg-012582,Atlanta,56 Marietta St NW,Atlanta,GA,30303,66.45,On Zayo Network,,116000.0,116000.0,23266.981627906975,198819158000.0,1126.0855813953488,1285.116976744186,-84.391561,33.755431,,11993.5,On-Net,Internet Content & Software,Media & Content,683378.0
300,Opp-000210,Acct-000011,5 - Accepted,True,True,7/20/16,24.0,,New Service,Wavelengths - Long Haul,Bldg-014866,Dallas,1950 N Stemmons Fwy,Dallas,TX,75207,239.8,On Zayo Network,,116000.0,116000.0,23266.981627906975,198819158000.0,1126.0855813953488,1285.116976744186,-96.819612,32.800805,,26388.0,On-Net,Internet Content & Software,Media & Content,683378.0
301,Opp-000211,Acct-000531,Closed - Lost,True,False,7/20/16,36.0,,New Service,Ethernet,Bldg-127085,Dallas,2501 S TX-121 - Bldg 5,Lewisville,TX,75067,890.51,On Zayo Network,,395.0,395.0,24664.77333333333,16991582485.58,2561.1111111111113,1874.77,-96.9974001,33.000035600000004,,34262.75,Fiber Only,Oil & Gas,Energy & Manufacturing,10154.0
302,Opp-000212,Acct-000075,Closed - Lost,True,False,7/20/16,24.0,,New Service,Dark Fiber - Metro,Bldg-012582,Atlanta,56 Marietta St NW,Atlanta,GA,30303,66.45,On Zayo Network,,7.0,8.0,93452.011,165022.33,2927.35,3719.6940000000004,-84.391561,33.755431,,11993.5,On-Net,Colo/Hosting,IT Infrastructure,29298.0
303,Opp-000212,Acct-000075,Closed - Lost,True,False,7/20/16,24.0,,New Service,Dark Fiber - Metro,Bldg-038074,Atlanta,1120 Curran St NW,Atlanta,GA,30318,540.75,On Zayo Network,,7.0,8.0,93452.011,165022.33,2927.35,3719.6940000000004,-84.4057855,33.7855586,,22978.0,Fiber Only,Colo/Hosting,IT Infrastructure,29298.0
304,Opp-000213,Acct-000019,3 - Committed,False,False,7/20/16,36.0,,New Service,Ethernet,Bldg-038071,Atlanta,1100 White St SW,Atlanta,GA,30310,297.34,On Zayo Network,,0.0,0.0,53023.202217194565,0.0,13306.329570135746,2934.3505882352943,-84.4256845,33.733839200000006,,18920.2,Fiber Only,National Carrier/ISP,Telecommunications,22141.48
305,Opp-000213,Acct-000019,3 - Committed,False,False,7/20/16,36.0,,New Service,Ethernet,Bldg-068789,Atlanta,3225 Cumberland Blvd SE,Atlanta,GA,30339,93.75,On Zayo Network,,0.0,0.0,53023.202217194565,0.0,13306.329570135746,2934.3505882352943,-84.4608857,33.877815999999996,,12812.5,On-Net,National Carrier/ISP,Telecommunications,22141.48
306,Opp-000214,Acct-000127,Closed - Lost,True,False,7/20/16,36.0,,New Service,Wavelengths - Long Haul,Bldg-015168,Denver,1850 Pearl St,Denver,CO,80203,103.07,On Zayo Network,,0.0,0.0,30394.489999999998,0.0,1982.3,3017.245,-104.97949960000001,39.745886,,17038.15,On-Net,Internet Content & Software,Media & Content,0.0
307,Opp-000215,Acct-000127,Closed - Lost,True,False,7/20/16,-1.0,,New Service,Wavelengths - Long Haul,Bldg-015168,Denver,1850 Pearl St,Denver,CO,80203,103.07,On Zayo Network,,0.0,0.0,30394.489999999998,0.0,1982.3,3017.245,-104.97949960000001,39.745886,,17038.15,On-Net,Internet Content & Software,Media & Content,0.0
308,Opp-000216,Acct-000127,Closed - Lost,True,False,7/20/16,36.0,,New Service,Ethernet,Bldg-015168,Denver,1850 Pearl St,Denver,CO,80203,103.07,On Zayo Network,,0.0,0.0,30394.489999999998,0.0,1982.3,3017.245,-104.97949960000001,39.745886,,17038.15,On-Net,Internet Content & Software,Media & Content,0.0
309,Opp-000217,Acct-001131,Closed - Lost,True,False,7/20/16,12.0,,New Service,Ethernet,Bldg-038523,Atlanta,375 Riverside Pkwy,Lithia Springs,GA,30122,274.12,On Zayo Network,,850.0,850.0,0.0,0.0,0.0,0.0,-84.581427,33.744265000000006,,18223.6,On-Net,Legal,Professional Services,37824.0
310,Opp-000218,Acct-000377,5 - Accepted,True,True,7/20/16,36.0,,New Service,Dark Fiber - Metro,Bldg-016418,Dallas,11830 Webb Chapel Rd,Dallas,TX,75234,596.58,On Zayo Network,,35.0,76.0,72654.25333333334,8715493.59,4648.416666666667,3055.1133333333332,-96.871178,32.9114239,,26914.5,Restricted,Internet Content & Software,Media & Content,94478.0
